{
  "IDFM:22009": {
    "nom": "Campo-Formio",
    "lignes": [
      "5"
    ],
    "latitude": 48.83559543123327,
    "longitude": 2.358468834639247
  },
  "IDFM:22392": {
    "nom": "Crimée",
    "lignes": [
      "7"
    ],
    "latitude": 48.8908857589288,
    "longitude": 2.37693573698238
  },
  "IDFM:21940": {
    "nom": "Marcel Sembat",
    "lignes": [
      "9"
    ],
    "latitude": 48.83380810724753,
    "longitude": 2.24346821405889
  },
  "IDFM:22133": {
    "nom": "Simplon",
    "lignes": [
      "4"
    ],
    "latitude": 48.8938152613519,
    "longitude": 2.347794968187123
  },
  "IDFM:22057": {
    "nom": "Concorde",
    "lignes": [
      "12"
    ],
    "latitude": 48.86615003482594,
    "longitude": 2.323181449571859
  },
  "IDFM:463115": {
    "nom": "Bonne Nouvelle",
    "lignes": [
      "8"
    ],
    "latitude": 48.87048144580479,
    "longitude": 2.348496122542364
  },
  "IDFM:463186": {
    "nom": "Glacière",
    "lignes": [
      "6"
    ],
    "latitude": 48.831115947616446,
    "longitude": 2.343438236678704
  },
  "IDFM:22181": {
    "nom": "Daumesnil",
    "lignes": [
      "6"
    ],
    "latitude": 48.839434008053175,
    "longitude": 2.396148628489371
  },
  "IDFM:463138": {
    "nom": "Bréguet-Sabin",
    "lignes": [
      "5"
    ],
    "latitude": 48.8562178110506,
    "longitude": 2.3703346849773035
  },
  "IDFM:463163": {
    "nom": "Félix Faure",
    "lignes": [
      "8"
    ],
    "latitude": 48.84274672574357,
    "longitude": 2.291751809719901
  },
  "IDFM:463051": {
    "nom": "Balard",
    "lignes": [
      "8"
    ],
    "latitude": 48.83666789483108,
    "longitude": 2.2783626618092008
  },
  "IDFM:463214": {
    "nom": "Malakoff - Rue Etienne Dolet",
    "lignes": [
      "13"
    ],
    "latitude": 48.81533836595972,
    "longitude": 2.2971240100835835
  },
  "IDFM:22108": {
    "nom": "Ternes",
    "lignes": [
      "2"
    ],
    "latitude": 48.8782007528283,
    "longitude": 2.2981136521983068
  },
  "IDFM:463074": {
    "nom": "Jaurès",
    "lignes": [
      "7B"
    ],
    "latitude": 48.882326316477965,
    "longitude": 2.370465586581431
  },
  "IDFM:22367": {
    "nom": "Château Landon",
    "lignes": [
      "7"
    ],
    "latitude": 48.87844145573239,
    "longitude": 2.3620179355106075
  },
  "IDFM:21915": {
    "nom": "Ranelagh",
    "lignes": [
      "9"
    ],
    "latitude": 48.855306214887065,
    "longitude": 2.270032697561899
  },
  "IDFM:22034": {
    "nom": "Louise Michel",
    "lignes": [
      "3"
    ],
    "latitude": 48.88853900119613,
    "longitude": 2.2882778490679767
  },
  "IDFM:463026": {
    "nom": "Place d'Italie",
    "lignes": [
      "7"
    ],
    "latitude": 48.83154938471729,
    "longitude": 2.355330902236442
  },
  "IDFM:21988": {
    "nom": "Boulogne Jean Jaurès",
    "lignes": [
      "10"
    ],
    "latitude": 48.842063301935575,
    "longitude": 2.239042669312605
  },
  "IDFM:463239": {
    "nom": "Michel-Ange - Molitor",
    "lignes": [
      "9"
    ],
    "latitude": 48.844880488259605,
    "longitude": 2.261631583355701
  },
  "IDFM:463099": {
    "nom": "Dupleix",
    "lignes": [
      "6"
    ],
    "latitude": 48.85038448621434,
    "longitude": 2.2936368390558783
  },
  "IDFM:483277": {
    "nom": "Barbara",
    "lignes": [
      "4"
    ],
    "latitude": 48.80979025430712,
    "longitude": 2.3174992240284045
  },
  "IDFM:463003": {
    "nom": "Place d'Italie",
    "lignes": [
      "6"
    ],
    "latitude": 48.830991153013954,
    "longitude": 2.3560502682264337
  },
  "IDFM:462957": {
    "nom": "Miromesnil",
    "lignes": [
      "9"
    ],
    "latitude": 48.87369210197914,
    "longitude": 2.3146768238242688
  },
  "IDFM:463076": {
    "nom": "Charles Michels",
    "lignes": [
      "10"
    ],
    "latitude": 48.84660453239739,
    "longitude": 2.2856210133667174
  },
  "IDFM:22032": {
    "nom": "Europe",
    "lignes": [
      "3"
    ],
    "latitude": 48.878780759649736,
    "longitude": 2.322294641649836
  },
  "IDFM:463097": {
    "nom": "Saint-Marcel",
    "lignes": [
      "5"
    ],
    "latitude": 48.83847698406796,
    "longitude": 2.3608176665940044
  },
  "IDFM:21917": {
    "nom": "Trocadéro",
    "lignes": [
      "9"
    ],
    "latitude": 48.863088061116,
    "longitude": 2.28683987979629
  },
  "IDFM:24686": {
    "nom": "Botzaris",
    "lignes": [
      "7B"
    ],
    "latitude": 48.87943610160117,
    "longitude": 2.388908111185046
  },
  "IDFM:21938": {
    "nom": "Pont de Sèvres",
    "lignes": [
      "9"
    ],
    "latitude": 48.82968726438348,
    "longitude": 2.2305185727726955
  },
  "IDFM:463313": {
    "nom": "Strasbourg - Saint-Denis",
    "lignes": [
      "4"
    ],
    "latitude": 48.86966773787259,
    "longitude": 2.3543411093711257
  },
  "IDFM:463028": {
    "nom": "Nation",
    "lignes": [
      "6"
    ],
    "latitude": 48.84789064769285,
    "longitude": 2.3957883190257903
  },
  "IDFM:463287": {
    "nom": "Pyrénées",
    "lignes": [
      "11"
    ],
    "latitude": 48.87381879018058,
    "longitude": 2.385202915569532
  },
  "IDFM:463005": {
    "nom": "Bir-Hakeim",
    "lignes": [
      "6"
    ],
    "latitude": 48.85392536837598,
    "longitude": 2.2894007376346
  },
  "IDFM:462959": {
    "nom": "Vaneau",
    "lignes": [
      "10"
    ],
    "latitude": 48.84889457005888,
    "longitude": 2.321351242354736
  },
  "IDFM:463264": {
    "nom": "Strasbourg - Saint-Denis",
    "lignes": [
      "9"
    ],
    "latitude": 48.86950305730265,
    "longitude": 2.3538223820093616
  },
  "IDFM:22080": {
    "nom": "Nation",
    "lignes": [
      "1"
    ],
    "latitude": 48.848084289973976,
    "longitude": 2.3958439887237373
  },
  "IDFM:463140": {
    "nom": "Cambronne",
    "lignes": [
      "6"
    ],
    "latitude": 48.84749339701438,
    "longitude": 2.302898786915822
  },
  "IDFM:22110": {
    "nom": "Rome",
    "lignes": [
      "2"
    ],
    "latitude": 48.882256139435015,
    "longitude": 2.3214039779193896
  },
  "IDFM:462982": {
    "nom": "La Chapelle",
    "lignes": [
      "2"
    ],
    "latitude": 48.88447648340964,
    "longitude": 2.360430336162137
  },
  "IDFM:463117": {
    "nom": "Alexandre Dumas",
    "lignes": [
      "2"
    ],
    "latitude": 48.85624467843737,
    "longitude": 2.3947127337554788
  },
  "IDFM:463241": {
    "nom": "Montgallet",
    "lignes": [
      "8"
    ],
    "latitude": 48.84400507570895,
    "longitude": 2.3904000136353645
  },
  "IDFM:22055": {
    "nom": "Lamarck - Caulaincourt",
    "lignes": [
      "12"
    ],
    "latitude": 48.8896991322768,
    "longitude": 2.338463589982122
  },
  "IDFM:22179": {
    "nom": "Bir-Hakeim",
    "lignes": [
      "6"
    ],
    "latitude": 48.85388427726308,
    "longitude": 2.2892963570634604
  },
  "IDFM:22222": {
    "nom": "Pernety",
    "lignes": [
      "13"
    ],
    "latitude": 48.834078679774976,
    "longitude": 2.318393706614701
  },
  "IDFM:21986": {
    "nom": "Charles Michels",
    "lignes": [
      "10"
    ],
    "latitude": 48.84636172348247,
    "longitude": 2.2856243417995747
  },
  "IDFM:463212": {
    "nom": "Mairie de Saint-Ouen",
    "lignes": [
      "13"
    ],
    "latitude": 48.911958864732505,
    "longitude": 2.333893080685357
  },
  "IDFM:21963": {
    "nom": "Saint-Lazare",
    "lignes": [
      "3"
    ],
    "latitude": 48.875025603040974,
    "longitude": 2.32460677606968
  },
  "IDFM:22369": {
    "nom": "Sully - Morland",
    "lignes": [
      "7"
    ],
    "latitude": 48.85120791254347,
    "longitude": 2.3617517381263218
  },
  "IDFM:22156": {
    "nom": "Montparnasse Bienvenue",
    "lignes": [
      "6"
    ],
    "latitude": 48.84205447194666,
    "longitude": 2.321273396249205
  },
  "IDFM:463072": {
    "nom": "Réaumur - Sébastopol",
    "lignes": [
      "4"
    ],
    "latitude": 48.866077771215046,
    "longitude": 2.352381731140252
  },
  "IDFM:22365": {
    "nom": "Place d'Italie",
    "lignes": [
      "7"
    ],
    "latitude": 48.83154024475565,
    "longitude": 2.355303769754901
  },
  "IDFM:22036": {
    "nom": "Anatole France",
    "lignes": [
      "3"
    ],
    "latitude": 48.892206617614,
    "longitude": 2.28498169634032
  },
  "IDFM:22106": {
    "nom": "Villiers",
    "lignes": [
      "2"
    ],
    "latitude": 48.88130644704797,
    "longitude": 2.3157165772440385
  },
  "IDFM:24682": {
    "nom": "Place des Fêtes",
    "lignes": [
      "7B"
    ],
    "latitude": 48.87693859004261,
    "longitude": 2.392959616507311
  },
  "IDFM:463024": {
    "nom": "Gare d'Austerlitz",
    "lignes": [
      "10"
    ],
    "latitude": 48.84228236697996,
    "longitude": 2.364395394600644
  },
  "IDFM:462978": {
    "nom": "Brochant",
    "lignes": [
      "13"
    ],
    "latitude": 48.89065187119005,
    "longitude": 2.3199048172093666
  },
  "IDFM:463001": {
    "nom": "Gare de l'Est",
    "lignes": [
      "7"
    ],
    "latitude": 48.87627121454162,
    "longitude": 2.358120525273069
  },
  "IDFM:463260": {
    "nom": "Porte de Vanves",
    "lignes": [
      "13"
    ],
    "latitude": 48.82761346400429,
    "longitude": 2.305332386657473
  },
  "IDFM:463190": {
    "nom": "Iéna",
    "lignes": [
      "9"
    ],
    "latitude": 48.864780022257456,
    "longitude": 2.2938642256822708
  },
  "IDFM:22177": {
    "nom": "Bel-Air",
    "lignes": [
      "6"
    ],
    "latitude": 48.84142733223358,
    "longitude": 2.400867131995259
  },
  "IDFM:462955": {
    "nom": "Montparnasse Bienvenue",
    "lignes": [
      "6"
    ],
    "latitude": 48.84213060781436,
    "longitude": 2.3212187199903807
  },
  "IDFM:22224": {
    "nom": "Miromesnil",
    "lignes": [
      "13"
    ],
    "latitude": 48.87344791579522,
    "longitude": 2.3160106931210245
  },
  "IDFM:22084": {
    "nom": "George V",
    "lignes": [
      "1"
    ],
    "latitude": 48.87203776458909,
    "longitude": 2.300759784978918
  },
  "IDFM:463283": {
    "nom": "Pyramides",
    "lignes": [
      "7"
    ],
    "latitude": 48.86583012818995,
    "longitude": 2.33429208315197
  },
  "IDFM:22154": {
    "nom": "Alésia",
    "lignes": [
      "4"
    ],
    "latitude": 48.82820106421924,
    "longitude": 2.3270932349484528
  },
  "IDFM:463047": {
    "nom": "Ecole Vétérinaire de Maisons-Alfort",
    "lignes": [
      "8"
    ],
    "latitude": 48.81483550210013,
    "longitude": 2.422399525054415
  },
  "IDFM:22131": {
    "nom": "Raspail",
    "lignes": [
      "4"
    ],
    "latitude": 48.83915635952557,
    "longitude": 2.330466993719873
  },
  "IDFM:21967": {
    "nom": "Gare d'Austerlitz",
    "lignes": [
      "10"
    ],
    "latitude": 48.84235503507328,
    "longitude": 2.364530764084249
  },
  "IDFM:22059": {
    "nom": "Abbesses",
    "lignes": [
      "12"
    ],
    "latitude": 48.884383574623314,
    "longitude": 2.338367478180517
  },
  "IDFM:463188": {
    "nom": "Havre-Caumartin",
    "lignes": [
      "9"
    ],
    "latitude": 48.8737568325288,
    "longitude": 2.327677208279404
  },
  "IDFM:463311": {
    "nom": "Solférino",
    "lignes": [
      "12"
    ],
    "latitude": 48.85853194972854,
    "longitude": 2.323075964251541
  },
  "IDFM:463165": {
    "nom": "Cour Saint-Emilion",
    "lignes": [
      "14"
    ],
    "latitude": 48.83331930384343,
    "longitude": 2.386617850214058
  },
  "IDFM:22388": {
    "nom": "Chaussée d'Antin - La Fayette",
    "lignes": [
      "7"
    ],
    "latitude": 48.87313420577469,
    "longitude": 2.333738594408701
  },
  "IDFM:463142": {
    "nom": "Charenton - Écoles",
    "lignes": [
      "8"
    ],
    "latitude": 48.82148073316996,
    "longitude": 2.413844709558796
  },
  "IDFM:463216": {
    "nom": "Les Gobelins",
    "lignes": [
      "7"
    ],
    "latitude": 48.83589170669027,
    "longitude": 2.3525311653622043
  },
  "IDFM:22013": {
    "nom": "Gare de l'Est",
    "lignes": [
      "5"
    ],
    "latitude": 48.87616299446643,
    "longitude": 2.35806459441865
  },
  "IDFM:21965": {
    "nom": "Madeleine",
    "lignes": [
      "12"
    ],
    "latitude": 48.8700546880179,
    "longitude": 2.325039317039756
  },
  "IDFM:463119": {
    "nom": "Anatole France",
    "lignes": [
      "3"
    ],
    "latitude": 48.89223258539651,
    "longitude": 2.2848122193525104
  },
  "IDFM:463049": {
    "nom": "Grands Boulevards",
    "lignes": [
      "9"
    ],
    "latitude": 48.871558801223806,
    "longitude": 2.3432202183423976
  },
  "IDFM:462980": {
    "nom": "Montparnasse Bienvenue",
    "lignes": [
      "12"
    ],
    "latitude": 48.84374228942691,
    "longitude": 2.32392211008296
  },
  "IDFM:463167": {
    "nom": "Créteil - Université",
    "lignes": [
      "8"
    ],
    "latitude": 48.78994285432577,
    "longitude": 2.4505697455342568
  },
  "IDFM:463237": {
    "nom": "Maubert - Mutualité",
    "lignes": [
      "10"
    ],
    "latitude": 48.85019546606951,
    "longitude": 2.3482804131694897
  },
  "IDFM:22011": {
    "nom": "Jacques Bonsergent",
    "lignes": [
      "5"
    ],
    "latitude": 48.87066646803471,
    "longitude": 2.3611315892483544
  },
  "IDFM:480341": {
    "nom": "Saint-Ouen",
    "lignes": [
      "14"
    ],
    "latitude": 48.90516956991565,
    "longitude": 2.3227559546697414
  },
  "IDFM:463144": {
    "nom": "Chaussée d'Antin - La Fayette",
    "lignes": [
      "9"
    ],
    "latitude": 48.87280723715393,
    "longitude": 2.333970457594147
  },
  "IDFM:22390": {
    "nom": "Cadet",
    "lignes": [
      "7"
    ],
    "latitude": 48.87596328507557,
    "longitude": 2.344446309702274
  },
  "IDFM:21942": {
    "nom": "Robespierre",
    "lignes": [
      "9"
    ],
    "latitude": 48.85567380855032,
    "longitude": 2.422973086496352
  },
  "IDFM:21919": {
    "nom": "Nation",
    "lignes": [
      "9"
    ],
    "latitude": 48.84888521841715,
    "longitude": 2.3959437210498136
  },
  "IDFM:24684": {
    "nom": "Pré-Saint-Gervais",
    "lignes": [
      "7B"
    ],
    "latitude": 48.8801595806643,
    "longitude": 2.398580770693528
  },
  "IDFM:463095": {
    "nom": "Jaurès",
    "lignes": [
      "5"
    ],
    "latitude": 48.88311355416086,
    "longitude": 2.371383333112514
  },
  "IDFM:22201": {
    "nom": "Saint-Sébastien - Froissart",
    "lignes": [
      "8"
    ],
    "latitude": 48.86098670797991,
    "longitude": 2.367370357789606
  },
  "IDFM:22129": {
    "nom": "Place de Clichy",
    "lignes": [
      "13"
    ],
    "latitude": 48.88373789022764,
    "longitude": 2.327398345647013
  },
  "IDFM:21990": {
    "nom": "Hôtel de Ville",
    "lignes": [
      "11"
    ],
    "latitude": 48.85757442237991,
    "longitude": 2.35154698561547
  },
  "IDFM:463262": {
    "nom": "Porte des Lilas",
    "lignes": [
      "3B"
    ],
    "latitude": 48.87663999703494,
    "longitude": 2.4069512666209
  },
  "IDFM:463309": {
    "nom": "Saint-Sébastien - Froissart",
    "lignes": [
      "8"
    ],
    "latitude": 48.86094943927989,
    "longitude": 2.3671254626151184
  },
  "IDFM:22082": {
    "nom": "Franklin D. Roosevelt",
    "lignes": [
      "1"
    ],
    "latitude": 48.8691648256349,
    "longitude": 2.309359666519628
  },
  "IDFM:463285": {
    "nom": "Père Lachaise",
    "lignes": [
      "2"
    ],
    "latitude": 48.86244984493746,
    "longitude": 2.387579891254445
  },
  "IDFM:22203": {
    "nom": "Ledru-Rollin",
    "lignes": [
      "8"
    ],
    "latitude": 48.85133776679838,
    "longitude": 2.376141223318593
  },
  "IDFM:463045": {
    "nom": "Olympiades",
    "lignes": [
      "14"
    ],
    "latitude": 48.82694415504304,
    "longitude": 2.367034270941924
  },
  "IDFM:21969": {
    "nom": "La Motte-Picquet - Grenelle",
    "lignes": [
      "10"
    ],
    "latitude": 48.84963080443241,
    "longitude": 2.2985257262366363
  },
  "IDFM:22198": {
    "nom": "Bonne Nouvelle",
    "lignes": [
      "8"
    ],
    "latitude": 48.8706347683979,
    "longitude": 2.3485760027859746
  },
  "IDFM:22127": {
    "nom": "Barbès - Rochechouart",
    "lignes": [
      "2"
    ],
    "latitude": 48.88377608955688,
    "longitude": 2.3506070793550977
  },
  "IDFM:463093": {
    "nom": "Barbès - Rochechouart",
    "lignes": [
      "4"
    ],
    "latitude": 48.88342517173516,
    "longitude": 2.3497455480753806
  },
  "IDFM:463321": {
    "nom": "Vaugirard",
    "lignes": [
      "12"
    ],
    "latitude": 48.83953628376544,
    "longitude": 2.300977822126098
  },
  "IDFM:463121": {
    "nom": "Argentine",
    "lignes": [
      "1"
    ],
    "latitude": 48.87566737659971,
    "longitude": 2.289435418542214
  },
  "IDFM:21946": {
    "nom": "Saint-Fargeau",
    "lignes": [
      "3B"
    ],
    "latitude": 48.87184337222297,
    "longitude": 2.4044981831688688
  },
  "IDFM:463268": {
    "nom": "Trocadéro",
    "lignes": [
      "6"
    ],
    "latitude": 48.86348766501957,
    "longitude": 2.2874927969664416
  },
  "IDFM:463068": {
    "nom": "Malesherbes",
    "lignes": [
      "3"
    ],
    "latitude": 48.88284002257779,
    "longitude": 2.309487846960011
  },
  "IDFM:25084": {
    "nom": "Buzenval",
    "lignes": [
      "9"
    ],
    "latitude": 48.85176243983227,
    "longitude": 2.401170769368413
  },
  "IDFM:463293": {
    "nom": "Reuilly - Diderot",
    "lignes": [
      "8"
    ],
    "latitude": 48.847094767969466,
    "longitude": 2.3869585404965377
  },
  "IDFM:22074": {
    "nom": "Saint-Paul (Le Marais)",
    "lignes": [
      "1"
    ],
    "latitude": 48.85518742160445,
    "longitude": 2.3608852562751967
  },
  "IDFM:463319": {
    "nom": "Télégraphe",
    "lignes": [
      "11"
    ],
    "latitude": 48.875519513947125,
    "longitude": 2.3986752529487725
  },
  "IDFM:21994": {
    "nom": "Arts et Métiers",
    "lignes": [
      "3"
    ],
    "latitude": 48.86553459885931,
    "longitude": 2.3567233472754983
  },
  "IDFM:21923": {
    "nom": "Michel-Ange - Molitor",
    "lignes": [
      "9"
    ],
    "latitude": 48.84491122756327,
    "longitude": 2.261511916905205
  },
  "IDFM:463245": {
    "nom": "Opéra",
    "lignes": [
      "7"
    ],
    "latitude": 48.87032626085252,
    "longitude": 2.332572085877118
  },
  "IDFM:462963": {
    "nom": "République",
    "lignes": [
      "9"
    ],
    "latitude": 48.86751235781114,
    "longitude": 2.3633023407804536
  },
  "IDFM:22051": {
    "nom": "Notre-Dame des Champs",
    "lignes": [
      "12"
    ],
    "latitude": 48.84508150807547,
    "longitude": 2.328564944227944
  },
  "IDFM:26602": {
    "nom": "Mairie de Montrouge",
    "lignes": [
      "4"
    ],
    "latitude": 48.81847190007368,
    "longitude": 2.319523835754741
  },
  "IDFM:22175": {
    "nom": "Corvisart",
    "lignes": [
      "6"
    ],
    "latitude": 48.82986001331238,
    "longitude": 2.350611225926166
  },
  "IDFM:463222": {
    "nom": "Mairie de Montrouge",
    "lignes": [
      "4"
    ],
    "latitude": 48.81845445619,
    "longitude": 2.319619399123785
  },
  "IDFM:24680": {
    "nom": "Jaurès",
    "lignes": [
      "7B"
    ],
    "latitude": 48.88234423020823,
    "longitude": 2.370451734004561
  },
  "IDFM:463192": {
    "nom": "Jourdain",
    "lignes": [
      "11"
    ],
    "latitude": 48.875247348641416,
    "longitude": 2.389325378910096
  },
  "IDFM:22102": {
    "nom": "Esplanade de la Défense",
    "lignes": [
      "1"
    ],
    "latitude": 48.88833173800946,
    "longitude": 2.2499040727323307
  },
  "IDFM:22152": {
    "nom": "Château Rouge",
    "lignes": [
      "4"
    ],
    "latitude": 48.88724193064896,
    "longitude": 2.3495819680256598
  },
  "IDFM:22226": {
    "nom": "Varenne",
    "lignes": [
      "13"
    ],
    "latitude": 48.85662498274656,
    "longitude": 2.315113930509657
  },
  "IDFM:22097": {
    "nom": "Bastille",
    "lignes": [
      "8"
    ],
    "latitude": 48.853425461693256,
    "longitude": 2.3695064282002
  },
  "IDFM:22401": {
    "nom": "Villejuif Paul Vaillant-Couturier",
    "lignes": [
      "7"
    ],
    "latitude": 48.79631793416014,
    "longitude": 2.3683316015776423
  },
  "IDFM:463146": {
    "nom": "Chemin Vert",
    "lignes": [
      "8"
    ],
    "latitude": 48.85708736782028,
    "longitude": 2.368095085385991
  },
  "IDFM:22049": {
    "nom": "Rennes",
    "lignes": [
      "12"
    ],
    "latitude": 48.84833282904063,
    "longitude": 2.3277871847873874
  },
  "IDFM:462965": {
    "nom": "Notre-Dame des Champs",
    "lignes": [
      "12"
    ],
    "latitude": 48.845077745637816,
    "longitude": 2.3286958054987075
  },
  "IDFM:21992": {
    "nom": "Rambuteau",
    "lignes": [
      "11"
    ],
    "latitude": 48.86119015695036,
    "longitude": 2.353273948594772
  },
  "IDFM:21921": {
    "nom": "Richelieu - Drouot",
    "lignes": [
      "9"
    ],
    "latitude": 48.87213587031796,
    "longitude": 2.3385912215385414
  },
  "IDFM:22150": {
    "nom": "Cité",
    "lignes": [
      "4"
    ],
    "latitude": 48.85493384910671,
    "longitude": 2.3472322349319112
  },
  "IDFM:22228": {
    "nom": "Guy Môquet",
    "lignes": [
      "13"
    ],
    "latitude": 48.8930014419616,
    "longitude": 2.327483258626126
  },
  "IDFM:22173": {
    "nom": "Glacière",
    "lignes": [
      "6"
    ],
    "latitude": 48.83117023524584,
    "longitude": 2.3434974927179884
  },
  "IDFM:463194": {
    "nom": "La Motte-Picquet - Grenelle",
    "lignes": [
      "6"
    ],
    "latitude": 48.84876544812232,
    "longitude": 2.298957096977008
  },
  "IDFM:480541": {
    "nom": "Porte de Clichy",
    "lignes": [
      "14"
    ],
    "latitude": 48.89428867785142,
    "longitude": 2.313431869544054
  },
  "IDFM:463070": {
    "nom": "Wagram",
    "lignes": [
      "3"
    ],
    "latitude": 48.8838463907272,
    "longitude": 2.304673087584434
  },
  "IDFM:463218": {
    "nom": "Louvre - Rivoli",
    "lignes": [
      "1"
    ],
    "latitude": 48.86090733426327,
    "longitude": 2.3409964272720227
  },
  "IDFM:22104": {
    "nom": "Château de Vincennes",
    "lignes": [
      "1"
    ],
    "latitude": 48.84431751431355,
    "longitude": 2.440540095406114
  },
  "IDFM:463022": {
    "nom": "Gare de l'Est",
    "lignes": [
      "4"
    ],
    "latitude": 48.87628351188479,
    "longitude": 2.3578981321043053
  },
  "IDFM:462942": {
    "nom": "Nation",
    "lignes": [
      "9"
    ],
    "latitude": 48.84897953767452,
    "longitude": 2.395921369214201
  },
  "IDFM:22003": {
    "nom": "Porte de Pantin",
    "lignes": [
      "5"
    ],
    "latitude": 48.888535337600175,
    "longitude": 2.3920607143419303
  },
  "IDFM:463169": {
    "nom": "Daumesnil",
    "lignes": [
      "6"
    ],
    "latitude": 48.839537421644565,
    "longitude": 2.396146067915452
  },
  "IDFM:463100": {
    "nom": "Edgar Quinet",
    "lignes": [
      "6"
    ],
    "latitude": 48.84090350169825,
    "longitude": 2.3252865779432965
  },
  "IDFM:22398": {
    "nom": "Le Kremlin-Bicêtre",
    "lignes": [
      "7"
    ],
    "latitude": 48.81025257278989,
    "longitude": 2.362130413802561
  },
  "IDFM:462988": {
    "nom": "Villiers",
    "lignes": [
      "2"
    ],
    "latitude": 48.88121227337839,
    "longitude": 2.31576144923934
  },
  "IDFM:22026": {
    "nom": "Temple",
    "lignes": [
      "3"
    ],
    "latitude": 48.86675662943444,
    "longitude": 2.361561234526356
  },
  "IDFM:22375": {
    "nom": "Pyramides",
    "lignes": [
      "7"
    ],
    "latitude": 48.86588028991413,
    "longitude": 2.3344175359665558
  },
  "IDFM:463123": {
    "nom": "Assemblée Nationale",
    "lignes": [
      "12"
    ],
    "latitude": 48.861122050080816,
    "longitude": 2.3206896796944263
  },
  "IDFM:463317": {
    "nom": "Trinité - d'Estienne d'Orves",
    "lignes": [
      "12"
    ],
    "latitude": 48.87633650730735,
    "longitude": 2.333049172418236
  },
  "IDFM:22230": {
    "nom": "Gaîté",
    "lignes": [
      "13"
    ],
    "latitude": 48.83854469308166,
    "longitude": 2.322463569405974
  },
  "IDFM:21996": {
    "nom": "Goncourt",
    "lignes": [
      "11"
    ],
    "latitude": 48.8700070178386,
    "longitude": 2.3707644347484003
  },
  "IDFM:21925": {
    "nom": "Oberkampf",
    "lignes": [
      "9"
    ],
    "latitude": 48.86477709852134,
    "longitude": 2.3681558453945515
  },
  "IDFM:462961": {
    "nom": "République",
    "lignes": [
      "5"
    ],
    "latitude": 48.867732931981166,
    "longitude": 2.3641925544688656
  },
  "IDFM:22078": {
    "nom": "Porte Maillot",
    "lignes": [
      "1"
    ],
    "latitude": 48.87816265364455,
    "longitude": 2.2825838473615496
  },
  "IDFM:22148": {
    "nom": "Gare de l'Est",
    "lignes": [
      "4"
    ],
    "latitude": 48.87627821831841,
    "longitude": 2.3577495818204395
  },
  "IDFM:22100": {
    "nom": "Les Sablons",
    "lignes": [
      "1"
    ],
    "latitude": 48.88129083793358,
    "longitude": 2.271904762259129
  },
  "IDFM:22030": {
    "nom": "Opéra",
    "lignes": [
      "3"
    ],
    "latitude": 48.87143742899726,
    "longitude": 2.331047286711241
  },
  "IDFM:463018": {
    "nom": "Bastille",
    "lignes": [
      "5"
    ],
    "latitude": 48.85330031648217,
    "longitude": 2.3687984466220384
  },
  "IDFM:22205": {
    "nom": "Montgallet",
    "lignes": [
      "8"
    ],
    "latitude": 48.8440641552825,
    "longitude": 2.39052195642492
  },
  "IDFM:22196": {
    "nom": "Richelieu - Drouot",
    "lignes": [
      "8"
    ],
    "latitude": 48.87173920910264,
    "longitude": 2.3384190255427955
  },
  "IDFM:22007": {
    "nom": "Gare du Nord",
    "lignes": [
      "5"
    ],
    "latitude": 48.87970181695894,
    "longitude": 2.3572164888604563
  },
  "IDFM:463148": {
    "nom": "Château Rouge",
    "lignes": [
      "4"
    ],
    "latitude": 48.88707887746752,
    "longitude": 2.3493658080048405
  },
  "IDFM:22394": {
    "nom": "Aubervilliers-Pantin Quatre Chemins",
    "lignes": [
      "7"
    ],
    "latitude": 48.90379699038963,
    "longitude": 2.392114382497849
  },
  "IDFM:463171": {
    "nom": "Etienne Marcel",
    "lignes": [
      "4"
    ],
    "latitude": 48.86370301202431,
    "longitude": 2.3489761968791085
  },
  "IDFM:22125": {
    "nom": "Blanche",
    "lignes": [
      "2"
    ],
    "latitude": 48.88376635447715,
    "longitude": 2.3324843754343627
  },
  "IDFM:22371": {
    "nom": "Riquet",
    "lignes": [
      "7"
    ],
    "latitude": 48.88810829453359,
    "longitude": 2.373764152701256
  },
  "IDFM:21973": {
    "nom": "Mabillon",
    "lignes": [
      "10"
    ],
    "latitude": 48.85284373829949,
    "longitude": 2.335142819346476
  },
  "IDFM:463289": {
    "nom": "Quai de la Rapée",
    "lignes": [
      "5"
    ],
    "latitude": 48.846427325479766,
    "longitude": 2.365884650750405
  },
  "IDFM:462984": {
    "nom": "Colonel Fabien",
    "lignes": [
      "2"
    ],
    "latitude": 48.87764980852146,
    "longitude": 2.370467574793864
  },
  "IDFM:463091": {
    "nom": "Réaumur - Sébastopol",
    "lignes": [
      "3"
    ],
    "latitude": 48.86628268363084,
    "longitude": 2.3520239377964742
  },
  "IDFM:463266": {
    "nom": "Ternes",
    "lignes": [
      "2"
    ],
    "latitude": 48.87822773086239,
    "longitude": 2.2981132886172437
  },
  "IDFM:21950": {
    "nom": "Gambetta",
    "lignes": [
      "3"
    ],
    "latitude": 48.86488271295642,
    "longitude": 2.397353102563538
  },
  "IDFM:463243": {
    "nom": "Ménilmontant",
    "lignes": [
      "2"
    ],
    "latitude": 48.86639014014544,
    "longitude": 2.3834303882303045
  },
  "IDFM:22194": {
    "nom": "Madeleine",
    "lignes": [
      "8"
    ],
    "latitude": 48.86956561611772,
    "longitude": 2.3260272117729994
  },
  "IDFM:22005": {
    "nom": "Ourcq",
    "lignes": [
      "5"
    ],
    "latitude": 48.88714990283661,
    "longitude": 2.3866765356019912
  },
  "IDFM:22207": {
    "nom": "Porte Dorée",
    "lignes": [
      "8"
    ],
    "latitude": 48.8350662204656,
    "longitude": 2.405749381400099
  },
  "IDFM:463020": {
    "nom": "Campo-Formio",
    "lignes": [
      "5"
    ],
    "latitude": 48.83554293374935,
    "longitude": 2.3587419566993457
  },
  "IDFM:463291": {
    "nom": "Raspail",
    "lignes": [
      "4"
    ],
    "latitude": 48.83910415024143,
    "longitude": 2.3307802165662403
  },
  "IDFM:22396": {
    "nom": "Mairie d'Ivry",
    "lignes": [
      "7"
    ],
    "latitude": 48.811210093393306,
    "longitude": 2.383498053635828
  },
  "IDFM:22146": {
    "nom": "Les Halles",
    "lignes": [
      "4"
    ],
    "latitude": 48.86252665962869,
    "longitude": 2.34600573656331
  },
  "IDFM:463173": {
    "nom": "Falguière",
    "lignes": [
      "12"
    ],
    "latitude": 48.84444335195695,
    "longitude": 2.3175087114640447
  },
  "IDFM:463102": {
    "nom": "Kléber",
    "lignes": [
      "6"
    ],
    "latitude": 48.87130161203911,
    "longitude": 2.2933259179892325
  },
  "IDFM:22053": {
    "nom": "Marx Dormoy",
    "lignes": [
      "12"
    ],
    "latitude": 48.89060729278663,
    "longitude": 2.359945883178033
  },
  "IDFM:483279": {
    "nom": "Bagneux - Lucie Aubrac",
    "lignes": [
      "4"
    ],
    "latitude": 48.80356582047439,
    "longitude": 2.3173900542429133
  },
  "IDFM:22373": {
    "nom": "Porte de Choisy",
    "lignes": [
      "7"
    ],
    "latitude": 48.8201320892324,
    "longitude": 2.3646245490007405
  },
  "IDFM:22123": {
    "nom": "Anvers",
    "lignes": [
      "2"
    ],
    "latitude": 48.882868568843925,
    "longitude": 2.344154840330292
  },
  "IDFM:463150": {
    "nom": "Concorde",
    "lignes": [
      "1"
    ],
    "latitude": 48.86655799294972,
    "longitude": 2.3229614457982586
  },
  "IDFM:21971": {
    "nom": "Église d'Auteuil",
    "lignes": [
      "10"
    ],
    "latitude": 48.84714336145718,
    "longitude": 2.269111389021892
  },
  "IDFM:462986": {
    "nom": "Sentier",
    "lignes": [
      "3"
    ],
    "latitude": 48.86728343166051,
    "longitude": 2.347513710821989
  },
  "IDFM:463220": {
    "nom": "Mairie d'Ivry",
    "lignes": [
      "7"
    ],
    "latitude": 48.811210093393306,
    "longitude": 2.383498053635828
  },
  "IDFM:463125": {
    "nom": "Avron",
    "lignes": [
      "2"
    ],
    "latitude": 48.85161645805963,
    "longitude": 2.3980666384995177
  },
  "IDFM:22028": {
    "nom": "Wagram",
    "lignes": [
      "3"
    ],
    "latitude": 48.88376067556563,
    "longitude": 2.3046251407269573
  },
  "IDFM:463315": {
    "nom": "Ségur",
    "lignes": [
      "10"
    ],
    "latitude": 48.84716726999503,
    "longitude": 2.307137849403385
  },
  "IDFM:21902": {
    "nom": "République",
    "lignes": [
      "3"
    ],
    "latitude": 48.86712186124499,
    "longitude": 2.364283168306328
  },
  "IDFM:462915": {
    "nom": "Saint-Philippe du Roule",
    "lignes": [
      "9"
    ],
    "latitude": 48.87215513107743,
    "longitude": 2.3101372056878247
  },
  "IDFM:463043": {
    "nom": "Charles de Gaulle - Etoile",
    "lignes": [
      "2"
    ],
    "latitude": 48.87494579313413,
    "longitude": 2.295927507409278
  },
  "IDFM:463066": {
    "nom": "Liège",
    "lignes": [
      "13"
    ],
    "latitude": 48.87971082693934,
    "longitude": 2.3269450274387555
  },
  "IDFM:22076": {
    "nom": "Reuilly - Diderot",
    "lignes": [
      "1"
    ],
    "latitude": 48.84723403765801,
    "longitude": 2.386056169673362
  },
  "IDFM:22171": {
    "nom": "Dupleix",
    "lignes": [
      "6"
    ],
    "latitude": 48.8504116258067,
    "longitude": 2.293663726731039
  },
  "IDFM:463089": {
    "nom": "Pigalle",
    "lignes": [
      "12"
    ],
    "latitude": 48.88202093206733,
    "longitude": 2.337211164701128
  },
  "IDFM:21948": {
    "nom": "Pelleport",
    "lignes": [
      "3B"
    ],
    "latitude": 48.86842046799948,
    "longitude": 2.40160636134298
  },
  "IDFM:22099": {
    "nom": "Pont de Neuilly",
    "lignes": [
      "1"
    ],
    "latitude": 48.88548938897471,
    "longitude": 2.258495429369125
  },
  "IDFM:21904": {
    "nom": "Michel-Ange - Molitor",
    "lignes": [
      "10"
    ],
    "latitude": 48.84515597018703,
    "longitude": 2.2618218573220084
  },
  "IDFM:462969": {
    "nom": "Saint-Lazare",
    "lignes": [
      "12"
    ],
    "latitude": 48.875594817796994,
    "longitude": 2.327470237303278
  },
  "IDFM:463063": {
    "nom": "Madeleine",
    "lignes": [
      "8"
    ],
    "latitude": 48.8696462363775,
    "longitude": 2.3259702743206723
  },
  "IDFM:22168": {
    "nom": "Place d'Italie",
    "lignes": [
      "6"
    ],
    "latitude": 48.830914982874944,
    "longitude": 2.356101612721528
  },
  "IDFM:463015": {
    "nom": "Maisons-Alfort - Les Juilliottes",
    "lignes": [
      "8"
    ],
    "latitude": 48.80321905319987,
    "longitude": 2.44595647715734
  },
  "IDFM:463251": {
    "nom": "Pierre et Marie Curie",
    "lignes": [
      "7"
    ],
    "latitude": 48.81587757774557,
    "longitude": 2.377362970985953
  },
  "IDFM:21975": {
    "nom": "Maubert - Mutualité",
    "lignes": [
      "10"
    ],
    "latitude": 48.85010969451494,
    "longitude": 2.348219343927666
  },
  "IDFM:22145": {
    "nom": "Odéon",
    "lignes": [
      "4"
    ],
    "latitude": 48.85210334038093,
    "longitude": 2.339486020317896
  },
  "IDFM:21952": {
    "nom": "Jaurès",
    "lignes": [
      "5"
    ],
    "latitude": 48.88302391342934,
    "longitude": 2.371438959985608
  },
  "IDFM:463198": {
    "nom": "Invalides",
    "lignes": [
      "13"
    ],
    "latitude": 48.86084865840772,
    "longitude": 2.3145404484362686
  },
  "IDFM:22122": {
    "nom": "Alexandre Dumas",
    "lignes": [
      "2"
    ],
    "latitude": 48.856199097341126,
    "longitude": 2.394591418672128
  },
  "IDFM:463038": {
    "nom": "Jasmin",
    "lignes": [
      "9"
    ],
    "latitude": 48.85243341872557,
    "longitude": 2.267933291647067
  },
  "IDFM:22232": {
    "nom": "Les Agnettes",
    "lignes": [
      "13"
    ],
    "latitude": 48.92308777796361,
    "longitude": 2.286263202479002
  },
  "IDFM:22170": {
    "nom": "Kléber",
    "lignes": [
      "6"
    ],
    "latitude": 48.87148941293503,
    "longitude": 2.293146137248626
  },
  "IDFM:22379": {
    "nom": "Pont Neuf",
    "lignes": [
      "7"
    ],
    "latitude": 48.858456031111984,
    "longitude": 2.3417089232034765
  },
  "IDFM:463104": {
    "nom": "Denfert-Rochereau",
    "lignes": [
      "4"
    ],
    "latitude": 48.83394869369227,
    "longitude": 2.332018835216387
  },
  "IDFM:463302": {
    "nom": "Saint-Denis - Université",
    "lignes": [
      "13"
    ],
    "latitude": 48.9458307173959,
    "longitude": 2.364530774042862
  },
  "IDFM:22092": {
    "nom": "Châtelet",
    "lignes": [
      "4"
    ],
    "latitude": 48.859661211559086,
    "longitude": 2.3466414308440138
  },
  "IDFM:462946": {
    "nom": "République",
    "lignes": [
      "3"
    ],
    "latitude": 48.86720306822776,
    "longitude": 2.364333297545428
  },
  "IDFM:22193": {
    "nom": "Invalides",
    "lignes": [
      "8"
    ],
    "latitude": 48.86109201138112,
    "longitude": 2.3146326604445164
  },
  "IDFM:463127": {
    "nom": "Bel-Air",
    "lignes": [
      "6"
    ],
    "latitude": 48.84142733223358,
    "longitude": 2.400867131995259
  },
  "IDFM:22120": {
    "nom": "Colonel Fabien",
    "lignes": [
      "2"
    ],
    "latitude": 48.877695345805535,
    "longitude": 2.370576102819657
  },
  "IDFM:462971": {
    "nom": "Saint-Lazare",
    "lignes": [
      "3"
    ],
    "latitude": 48.87496650103443,
    "longitude": 2.3244924701707954
  },
  "IDFM:22234": {
    "nom": "Gabriel Péri",
    "lignes": [
      "13"
    ],
    "latitude": 48.91639290208823,
    "longitude": 2.2946921563609406
  },
  "IDFM:483898": {
    "nom": "Mairie d'Aubervilliers",
    "lignes": [
      "12"
    ],
    "latitude": 48.91373058592168,
    "longitude": 2.3808510232809863
  },
  "IDFM:463299": {
    "nom": "Saint-Ambroise",
    "lignes": [
      "9"
    ],
    "latitude": 48.861480218467655,
    "longitude": 2.373996451922189
  },
  "IDFM:463228": {
    "nom": "Pereire",
    "lignes": [
      "3"
    ],
    "latitude": 48.88492986463719,
    "longitude": 2.297701123838181
  },
  "IDFM:22019": {
    "nom": "Parmentier",
    "lignes": [
      "3"
    ],
    "latitude": 48.86524326053047,
    "longitude": 2.3747205969196896
  },
  "IDFM:463325": {
    "nom": "Voltaire",
    "lignes": [
      "9"
    ],
    "latitude": 48.85766243438601,
    "longitude": 2.3800316941488044
  },
  "IDFM:22191": {
    "nom": "École Militaire",
    "lignes": [
      "8"
    ],
    "latitude": 48.85491966058707,
    "longitude": 2.3063456838200764
  },
  "IDFM:463201": {
    "nom": "La Motte-Picquet - Grenelle",
    "lignes": [
      "8"
    ],
    "latitude": 48.84967105681514,
    "longitude": 2.298488389923641
  },
  "IDFM:22211": {
    "nom": "Créteil - L'Échat",
    "lignes": [
      "8"
    ],
    "latitude": 48.79661083011156,
    "longitude": 2.4493695956133714
  },
  "IDFM:22381": {
    "nom": "Opéra",
    "lignes": [
      "7"
    ],
    "latitude": 48.87030303390994,
    "longitude": 2.3324387808144875
  },
  "IDFM:462994": {
    "nom": "Mabillon",
    "lignes": [
      "10"
    ],
    "latitude": 48.85296034336302,
    "longitude": 2.3350868179946915
  },
  "IDFM:22209": {
    "nom": "Liberté",
    "lignes": [
      "8"
    ],
    "latitude": 48.826148180607525,
    "longitude": 2.4064912314699263
  },
  "IDFM:21927": {
    "nom": "Iéna",
    "lignes": [
      "9"
    ],
    "latitude": 48.86468583928868,
    "longitude": 2.293906396859107
  },
  "IDFM:21998": {
    "nom": "Belleville",
    "lignes": [
      "11"
    ],
    "latitude": 48.87190897536768,
    "longitude": 2.376753738418521
  },
  "IDFM:463086": {
    "nom": "Mairie de Clichy",
    "lignes": [
      "13"
    ],
    "latitude": 48.90344880444455,
    "longitude": 2.305726300569584
  },
  "IDFM:22021": {
    "nom": "Pereire",
    "lignes": [
      "3"
    ],
    "latitude": 48.88484432273985,
    "longitude": 2.297683186012584
  },
  "IDFM:463253": {
    "nom": "Place de Clichy",
    "lignes": [
      "13"
    ],
    "latitude": 48.88372367345266,
    "longitude": 2.327268983025867
  },
  "IDFM:22044": {
    "nom": "Saint-Georges",
    "lignes": [
      "12"
    ],
    "latitude": 48.87841659490173,
    "longitude": 2.3375706403796697
  },
  "IDFM:463152": {
    "nom": "Corentin Cariou",
    "lignes": [
      "7"
    ],
    "latitude": 48.89467266005628,
    "longitude": 2.382291557164633
  },
  "IDFM:463276": {
    "nom": "Porte de Bagnolet",
    "lignes": [
      "3"
    ],
    "latitude": 48.86453937293447,
    "longitude": 2.4087542211895427
  },
  "IDFM:463040": {
    "nom": "Saint-Mandé",
    "lignes": [
      "1"
    ],
    "latitude": 48.84622934735893,
    "longitude": 2.4189897063438077
  },
  "IDFM:463295": {
    "nom": "Riquet",
    "lignes": [
      "7"
    ],
    "latitude": 48.8881572620658,
    "longitude": 2.373669464743196
  },
  "IDFM:463036": {
    "nom": "Richelieu - Drouot",
    "lignes": [
      "9"
    ],
    "latitude": 48.87223943327036,
    "longitude": 2.3386163553228103
  },
  "IDFM:22189": {
    "nom": "Félix Faure",
    "lignes": [
      "8"
    ],
    "latitude": 48.84268433479664,
    "longitude": 2.2918472203679703
  },
  "IDFM:463177": {
    "nom": "École Militaire",
    "lignes": [
      "8"
    ],
    "latitude": 48.85486175512232,
    "longitude": 2.3064410394306907
  },
  "IDFM:463106": {
    "nom": "Place Monge",
    "lignes": [
      "7"
    ],
    "latitude": 48.842683564383904,
    "longitude": 2.3520055901754717
  },
  "IDFM:463300": {
    "nom": "Saint-Augustin",
    "lignes": [
      "9"
    ],
    "latitude": 48.874632152132925,
    "longitude": 2.321031570403537
  },
  "IDFM:463084": {
    "nom": "Duroc",
    "lignes": [
      "10"
    ],
    "latitude": 48.84668027285166,
    "longitude": 2.3162843486517035
  },
  "IDFM:463129": {
    "nom": "Bercy",
    "lignes": [
      "14"
    ],
    "latitude": 48.84010199803391,
    "longitude": 2.3790620152277238
  },
  "IDFM:463154": {
    "nom": "Courcelles",
    "lignes": [
      "2"
    ],
    "latitude": 48.87926525411311,
    "longitude": 2.303294362425212
  },
  "IDFM:463224": {
    "nom": "Maison Blanche",
    "lignes": [
      "7"
    ],
    "latitude": 48.82214950607496,
    "longitude": 2.358412946155939
  },
  "IDFM:22377": {
    "nom": "Poissonnière",
    "lignes": [
      "7"
    ],
    "latitude": 48.87716484925024,
    "longitude": 2.3487397513900734
  },
  "IDFM:463059": {
    "nom": "Oberkampf",
    "lignes": [
      "5"
    ],
    "latitude": 48.86464456516527,
    "longitude": 2.3686045625807752
  },
  "IDFM:22025": {
    "nom": "Rue Saint-Maur",
    "lignes": [
      "3"
    ],
    "latitude": 48.86413108020325,
    "longitude": 2.380486332251813
  },
  "IDFM:463205": {
    "nom": "Lamarck - Caulaincourt",
    "lignes": [
      "12"
    ],
    "latitude": 48.88968180996681,
    "longitude": 2.3385838243831936
  },
  "IDFM:22166": {
    "nom": "Pasteur",
    "lignes": [
      "6"
    ],
    "latitude": 48.842482718285865,
    "longitude": 2.312792651441268
  },
  "IDFM:21979": {
    "nom": "Ségur",
    "lignes": [
      "10"
    ],
    "latitude": 48.84722639005396,
    "longitude": 2.3072520746428715
  },
  "IDFM:21906": {
    "nom": "Havre-Caumartin",
    "lignes": [
      "3"
    ],
    "latitude": 48.87346783937801,
    "longitude": 2.327462798423509
  },
  "IDFM:463323": {
    "nom": "Villejuif Léo Lagrange",
    "lignes": [
      "7"
    ],
    "latitude": 48.80436739901952,
    "longitude": 2.364068547658874
  },
  "IDFM:22048": {
    "nom": "Volontaires",
    "lignes": [
      "12"
    ],
    "latitude": 48.84141172841498,
    "longitude": 2.3079833805768515
  },
  "IDFM:22143": {
    "nom": "Montparnasse Bienvenue",
    "lignes": [
      "4"
    ],
    "latitude": 48.84385251452581,
    "longitude": 2.3243294607791096
  },
  "IDFM:462990": {
    "nom": "Pelleport",
    "lignes": [
      "3B"
    ],
    "latitude": 48.86846488701483,
    "longitude": 2.4014967922879253
  },
  "IDFM:462944": {
    "nom": "Cluny - La Sorbonne",
    "lignes": [
      "10"
    ],
    "latitude": 48.850793731720536,
    "longitude": 2.3450218824744566
  },
  "IDFM:21929": {
    "nom": "La Muette",
    "lignes": [
      "9"
    ],
    "latitude": 48.85809196689865,
    "longitude": 2.2740962446697224
  },
  "IDFM:22164": {
    "nom": "Trocadéro",
    "lignes": [
      "6"
    ],
    "latitude": 48.86346147371448,
    "longitude": 2.287625377853519
  },
  "IDFM:22023": {
    "nom": "Porte de Champerret",
    "lignes": [
      "3"
    ],
    "latitude": 48.885736266685264,
    "longitude": 2.291848147336647
  },
  "IDFM:22094": {
    "nom": "Charles de Gaulle - Etoile",
    "lignes": [
      "2"
    ],
    "latitude": 48.87499457617108,
    "longitude": 2.2958117752357627
  },
  "IDFM:21908": {
    "nom": "Rue de la Pompe",
    "lignes": [
      "9"
    ],
    "latitude": 48.863951708879945,
    "longitude": 2.2778858979590564
  },
  "IDFM:21977": {
    "nom": "Vaneau",
    "lignes": [
      "10"
    ],
    "latitude": 48.84870050683084,
    "longitude": 2.321227717195941
  },
  "IDFM:483903": {
    "nom": "Aimé Césaire",
    "lignes": [
      "12"
    ],
    "latitude": 48.90838312983791,
    "longitude": 2.378035995881576
  },
  "IDFM:22046": {
    "nom": "Trinité - d'Estienne d'Orves",
    "lignes": [
      "12"
    ],
    "latitude": 48.87625096700832,
    "longitude": 2.333030634158166
  },
  "IDFM:463179": {
    "nom": "Fort d'Aubervilliers",
    "lignes": [
      "7"
    ],
    "latitude": 48.91470775289347,
    "longitude": 2.404187821795194
  },
  "IDFM:463131": {
    "nom": "Bobigny Pablo Picasso",
    "lignes": [
      "5"
    ],
    "latitude": 48.90636679503056,
    "longitude": 2.449301336646573
  },
  "IDFM:474397": {
    "nom": "Miromesnil",
    "lignes": [
      "13"
    ],
    "latitude": 48.87344757302508,
    "longitude": 2.3159507090192264
  },
  "IDFM:462992": {
    "nom": "Saint-Sulpice",
    "lignes": [
      "4"
    ],
    "latitude": 48.85113858957915,
    "longitude": 2.330953550650454
  },
  "IDFM:22141": {
    "nom": "Porte de Clignancourt",
    "lignes": [
      "4"
    ],
    "latitude": 48.89755778141871,
    "longitude": 2.3447472731828847
  },
  "IDFM:463297": {
    "nom": "Rue Saint-Maur",
    "lignes": [
      "3"
    ],
    "latitude": 48.86405000324374,
    "longitude": 2.3804600339610773
  },
  "IDFM:480330": {
    "nom": "Mairie de Saint-Ouen",
    "lignes": [
      "14"
    ],
    "latitude": 48.91164217552501,
    "longitude": 2.333545807213269
  },
  "IDFM:463061": {
    "nom": "Hôtel de Ville",
    "lignes": [
      "11"
    ],
    "latitude": 48.85760073633446,
    "longitude": 2.3514239919428728
  },
  "IDFM:21954": {
    "nom": "Olympiades",
    "lignes": [
      "14"
    ],
    "latitude": 48.827123441429386,
    "longitude": 2.3669231215308075
  },
  "IDFM:463108": {
    "nom": "Arts et Métiers",
    "lignes": [
      "11"
    ],
    "latitude": 48.865380699169286,
    "longitude": 2.356535223129095
  },
  "IDFM:22236": {
    "nom": "Malakoff - Rue Etienne Dolet",
    "lignes": [
      "13"
    ],
    "latitude": 48.815265523780766,
    "longitude": 2.296972463702674
  },
  "IDFM:463249": {
    "nom": "Palais Royal - Musée du Louvre",
    "lignes": [
      "7"
    ],
    "latitude": 48.86276538184415,
    "longitude": 2.3370872868854398
  },
  "IDFM:462967": {
    "nom": "Sèvres - Babylone",
    "lignes": [
      "10"
    ],
    "latitude": 48.85112511792463,
    "longitude": 2.326149066096725
  },
  "IDFM:463013": {
    "nom": "Charles de Gaulle - Etoile",
    "lignes": [
      "1"
    ],
    "latitude": 48.87392926445533,
    "longitude": 2.2951172138230334
  },
  "IDFM:463226": {
    "nom": "Michel Bizot",
    "lignes": [
      "8"
    ],
    "latitude": 48.83707743103578,
    "longitude": 2.402366739988004
  },
  "IDFM:22118": {
    "nom": "Jaurès",
    "lignes": [
      "2"
    ],
    "latitude": 48.88159683079925,
    "longitude": 2.370269867509251
  },
  "IDFM:463203": {
    "nom": "La Muette",
    "lignes": [
      "9"
    ],
    "latitude": 48.85809196689865,
    "longitude": 2.2740962446697224
  },
  "IDFM:21931": {
    "nom": "Franklin D. Roosevelt",
    "lignes": [
      "9"
    ],
    "latitude": 48.86872488799857,
    "longitude": 2.309488192337113
  },
  "IDFM:22000": {
    "nom": "Saint-Marcel",
    "lignes": [
      "5"
    ],
    "latitude": 48.83853898898134,
    "longitude": 2.3606397867113924
  },
  "IDFM:22213": {
    "nom": "Créteil - Préfecture",
    "lignes": [
      "8"
    ],
    "latitude": 48.77975652677895,
    "longitude": 2.459305169291261
  },
  "IDFM:463133": {
    "nom": "Bonne Nouvelle",
    "lignes": [
      "9"
    ],
    "latitude": 48.87049007203075,
    "longitude": 2.348428667867017
  },
  "IDFM:463308": {
    "nom": "Saint-Placide",
    "lignes": [
      "4"
    ],
    "latitude": 48.84700665158937,
    "longitude": 2.327054815066312
  },
  "IDFM:463009": {
    "nom": "Stalingrad",
    "lignes": [
      "2"
    ],
    "latitude": 48.88432054886986,
    "longitude": 2.365774370558169
  },
  "IDFM:478395": {
    "nom": "La Fourche",
    "lignes": [
      "13"
    ],
    "latitude": 48.88736901850862,
    "longitude": 2.325414931297021
  },
  "IDFM:22238": {
    "nom": "Mairie de Clichy",
    "lignes": [
      "13"
    ],
    "latitude": 48.90349897462669,
    "longitude": 2.3058484063578857
  },
  "IDFM:480340": {
    "nom": "Pont Cardinet",
    "lignes": [
      "14"
    ],
    "latitude": 48.88810340364297,
    "longitude": 2.3153681405051527
  },
  "IDFM:21910": {
    "nom": "Saint-Ambroise",
    "lignes": [
      "9"
    ],
    "latitude": 48.86141665790915,
    "longitude": 2.3738805382115475
  },
  "IDFM:22139": {
    "nom": "Saint-Sulpice",
    "lignes": [
      "4"
    ],
    "latitude": 48.85120862756671,
    "longitude": 2.330611953081543
  },
  "IDFM:463181": {
    "nom": "Franklin D. Roosevelt",
    "lignes": [
      "1"
    ],
    "latitude": 48.86925069418826,
    "longitude": 2.309434325751582
  },
  "IDFM:22015": {
    "nom": "Bobigny Pablo Picasso",
    "lignes": [
      "5"
    ],
    "latitude": 48.9063655341063,
    "longitude": 2.4490271414582585
  },
  "IDFM:22215": {
    "nom": "Maisons-Alfort - Stade",
    "lignes": [
      "8"
    ],
    "latitude": 48.80891847848263,
    "longitude": 2.434819533389365
  },
  "IDFM:21958": {
    "nom": "Gare de Lyon",
    "lignes": [
      "14"
    ],
    "latitude": 48.8442498880687,
    "longitude": 2.372519782814122
  },
  "IDFM:462998": {
    "nom": "Odéon",
    "lignes": [
      "10"
    ],
    "latitude": 48.85202455451491,
    "longitude": 2.340692291066523
  },
  "IDFM:22187": {
    "nom": "Lourmel",
    "lignes": [
      "8"
    ],
    "latitude": 48.83866086365992,
    "longitude": 2.2822419598550767
  },
  "IDFM:22385": {
    "nom": "Maison Blanche",
    "lignes": [
      "7"
    ],
    "latitude": 48.82216816831483,
    "longitude": 2.3585387043161337
  },
  "IDFM:22114": {
    "nom": "Pigalle",
    "lignes": [
      "2"
    ],
    "latitude": 48.88226954222623,
    "longitude": 2.338257976509587
  },
  "IDFM:463082": {
    "nom": "Front Populaire",
    "lignes": [
      "12"
    ],
    "latitude": 48.90666420278779,
    "longitude": 2.365792023989413
  },
  "IDFM:463156": {
    "nom": "Buttes Chaumont",
    "lignes": [
      "7B"
    ],
    "latitude": 48.87842297113146,
    "longitude": 2.381632921459486
  },
  "IDFM:22040": {
    "nom": "Pigalle",
    "lignes": [
      "12"
    ],
    "latitude": 48.88201178841109,
    "longitude": 2.3371840091053384
  },
  "IDFM:462952": {
    "nom": "Guy Môquet",
    "lignes": [
      "13"
    ],
    "latitude": 48.8930014419616,
    "longitude": 2.327483258626126
  },
  "IDFM:21935": {
    "nom": "Alma - Marceau",
    "lignes": [
      "9"
    ],
    "latitude": 48.8647282422178,
    "longitude": 2.301130527470699
  },
  "IDFM:462975": {
    "nom": "La Fourche",
    "lignes": [
      "13"
    ],
    "latitude": 48.88743365673691,
    "longitude": 2.3257141171661355
  },
  "IDFM:463110": {
    "nom": "Belleville",
    "lignes": [
      "11"
    ],
    "latitude": 48.87198955568015,
    "longitude": 2.376684607718542
  },
  "IDFM:22086": {
    "nom": "Charles de Gaulle - Etoile",
    "lignes": [
      "1"
    ],
    "latitude": 48.87392926445533,
    "longitude": 2.2951172138230334
  },
  "IDFM:463257": {
    "nom": "Porte Maillot",
    "lignes": [
      "1"
    ],
    "latitude": 48.87780565043799,
    "longitude": 2.2822896139411903
  },
  "IDFM:463234": {
    "nom": "Porte d'Auteuil",
    "lignes": [
      "10"
    ],
    "latitude": 48.84790412362924,
    "longitude": 2.258280744595537
  },
  "IDFM:463011": {
    "nom": "Champs-Élysées - Clemenceau",
    "lignes": [
      "13"
    ],
    "latitude": 48.86749552078754,
    "longitude": 2.3138736155952317
  },
  "IDFM:22185": {
    "nom": "Invalides",
    "lignes": [
      "13"
    ],
    "latitude": 48.86053445554123,
    "longitude": 2.3146399951225347
  },
  "IDFM:463207": {
    "nom": "Les Agnettes",
    "lignes": [
      "13"
    ],
    "latitude": 48.923055662740055,
    "longitude": 2.28615583314788
  },
  "IDFM:21956": {
    "nom": "Cour Saint-Emilion",
    "lignes": [
      "14"
    ],
    "latitude": 48.83334999725014,
    "longitude": 2.386464909364189
  },
  "IDFM:22387": {
    "nom": "Gare de l'Est",
    "lignes": [
      "7"
    ],
    "latitude": 48.87636105433344,
    "longitude": 2.358103056697664
  },
  "IDFM:463282": {
    "nom": "Pré-Saint-Gervais",
    "lignes": [
      "7B"
    ],
    "latitude": 48.8801595806643,
    "longitude": 2.398580770693528
  },
  "IDFM:463158": {
    "nom": "Châtelet",
    "lignes": [
      "4"
    ],
    "latitude": 48.85971581985686,
    "longitude": 2.3467600097151675
  },
  "IDFM:463080": {
    "nom": "Hôtel de Ville",
    "lignes": [
      "1"
    ],
    "latitude": 48.85735240518587,
    "longitude": 2.3520676701391
  },
  "IDFM:22116": {
    "nom": "Ménilmontant",
    "lignes": [
      "2"
    ],
    "latitude": 48.866440166781686,
    "longitude": 2.38353966877949
  },
  "IDFM:22364": {
    "nom": "Châtelet",
    "lignes": [
      "7"
    ],
    "latitude": 48.85695346078533,
    "longitude": 2.3481609912345776
  },
  "IDFM:462977": {
    "nom": "Garibaldi",
    "lignes": [
      "13"
    ],
    "latitude": 48.90638108007163,
    "longitude": 2.331907872638921
  },
  "IDFM:483313": {
    "nom": "Barbara",
    "lignes": [
      "4"
    ],
    "latitude": 48.8097987811254,
    "longitude": 2.3174174096489284
  },
  "IDFM:21933": {
    "nom": "Bonne Nouvelle",
    "lignes": [
      "9"
    ],
    "latitude": 48.8706433160169,
    "longitude": 2.3484940979375373
  },
  "IDFM:463306": {
    "nom": "Saint-Michel",
    "lignes": [
      "4"
    ],
    "latitude": 48.85359407756809,
    "longitude": 2.343991799033288
  },
  "IDFM:21981": {
    "nom": "Gare d'Austerlitz",
    "lignes": [
      "5"
    ],
    "latitude": 48.84229779662816,
    "longitude": 2.3656078807625422
  },
  "IDFM:22038": {
    "nom": "Montparnasse Bienvenue",
    "lignes": [
      "12"
    ],
    "latitude": 48.84382361125447,
    "longitude": 2.323989185205003
  },
  "IDFM:463034": {
    "nom": "Louis Blanc",
    "lignes": [
      "7B"
    ],
    "latitude": 48.88118341152446,
    "longitude": 2.364365143550256
  },
  "IDFM:22162": {
    "nom": "La Motte-Picquet - Grenelle",
    "lignes": [
      "6"
    ],
    "latitude": 48.848697697821954,
    "longitude": 2.298906224573169
  },
  "IDFM:22061": {
    "nom": "Corentin Celton",
    "lignes": [
      "12"
    ],
    "latitude": 48.82682329515912,
    "longitude": 2.2789586605256367
  },
  "IDFM:463135": {
    "nom": "Boucicaut",
    "lignes": [
      "8"
    ],
    "latitude": 48.84112235368016,
    "longitude": 2.287794461321176
  },
  "IDFM:22240": {
    "nom": "Basilique de Saint-Denis",
    "lignes": [
      "13"
    ],
    "latitude": 48.93678306532419,
    "longitude": 2.3592958408126816
  },
  "IDFM:463057": {
    "nom": "Pointe du Lac",
    "lignes": [
      "8"
    ],
    "latitude": 48.76876136434425,
    "longitude": 2.464317312722042
  },
  "IDFM:463160": {
    "nom": "Châtelet",
    "lignes": [
      "1"
    ],
    "latitude": 48.85930591756934,
    "longitude": 2.3458090025909044
  },
  "IDFM:462996": {
    "nom": "Montparnasse Bienvenue",
    "lignes": [
      "4"
    ],
    "latitude": 48.84391578859517,
    "longitude": 2.3243858698057784
  },
  "IDFM:22160": {
    "nom": "Saint-Jacques",
    "lignes": [
      "6"
    ],
    "latitude": 48.832916006219165,
    "longitude": 2.337154370925007
  },
  "IDFM:22090": {
    "nom": "Champs-Élysées - Clemenceau",
    "lignes": [
      "1"
    ],
    "latitude": 48.86758395955256,
    "longitude": 2.314397292025236
  },
  "IDFM:462948": {
    "nom": "Pasteur",
    "lignes": [
      "6"
    ],
    "latitude": 48.842528387543226,
    "longitude": 2.31291468047394
  },
  "IDFM:22112": {
    "nom": "Père Lachaise",
    "lignes": [
      "2"
    ],
    "latitude": 48.86248637862667,
    "longitude": 2.387689326065689
  },
  "IDFM:463230": {
    "nom": "Philippe Auguste",
    "lignes": [
      "2"
    ],
    "latitude": 48.85808942813576,
    "longitude": 2.390497596745289
  },
  "IDFM:22242": {
    "nom": "Saint-Denis - Université",
    "lignes": [
      "13"
    ],
    "latitude": 48.945911458883856,
    "longitude": 2.364494290510317
  },
  "IDFM:22383": {
    "nom": "Les Gobelins",
    "lignes": [
      "7"
    ],
    "latitude": 48.83584162234448,
    "longitude": 2.352416801898276
  },
  "IDFM:22042": {
    "nom": "Porte de Versailles",
    "lignes": [
      "12"
    ],
    "latitude": 48.83230151439446,
    "longitude": 2.28813294509322
  },
  "IDFM:462973": {
    "nom": "Marcadet - Poissonniers",
    "lignes": [
      "12"
    ],
    "latitude": 48.89154760285429,
    "longitude": 2.3500246218070155
  },
  "IDFM:21937": {
    "nom": "République",
    "lignes": [
      "11"
    ],
    "latitude": 48.86794303120089,
    "longitude": 2.364804805140413
  },
  "IDFM:463112": {
    "nom": "Bibliothèque François Mitterrand",
    "lignes": [
      "14"
    ],
    "latitude": 48.829925765928905,
    "longitude": 2.376487371168301
  },
  "IDFM:21985": {
    "nom": "Chardon Lagache",
    "lignes": [
      "10"
    ],
    "latitude": 48.84508829917885,
    "longitude": 2.26690547594029
  },
  "IDFM:463211": {
    "nom": "Lourmel",
    "lignes": [
      "8"
    ],
    "latitude": 48.83878553901948,
    "longitude": 2.2820358715985742
  },
  "IDFM:463030": {
    "nom": "Porte de Choisy",
    "lignes": [
      "7"
    ],
    "latitude": 48.82005592914816,
    "longitude": 2.3646785940494577
  },
  "IDFM:21912": {
    "nom": "Saint-Philippe du Roule",
    "lignes": [
      "9"
    ],
    "latitude": 48.87215435003593,
    "longitude": 2.310001699600818
  },
  "IDFM:22137": {
    "nom": "Saint-Michel",
    "lignes": [
      "4"
    ],
    "latitude": 48.85358493521485,
    "longitude": 2.343964657062377
  },
  "IDFM:22217": {
    "nom": "Saint-François-Xavier",
    "lignes": [
      "13"
    ],
    "latitude": 48.8512787565696,
    "longitude": 2.314407403528732
  },
  "IDFM:463053": {
    "nom": "Robespierre",
    "lignes": [
      "9"
    ],
    "latitude": 48.85575461389504,
    "longitude": 2.4229449336324724
  },
  "IDFM:463183": {
    "nom": "Gare du Nord",
    "lignes": [
      "4"
    ],
    "latitude": 48.87959170741013,
    "longitude": 2.356808788205409
  },
  "IDFM:463137": {
    "nom": "Boulogne Jean Jaurès",
    "lignes": [
      "10"
    ],
    "latitude": 48.841991575324506,
    "longitude": 2.239077780728926
  },
  "IDFM:21983": {
    "nom": "Cluny - La Sorbonne",
    "lignes": [
      "10"
    ],
    "latitude": 48.851026876874485,
    "longitude": 2.34489630121208
  },
  "IDFM:22088": {
    "nom": "Argentine",
    "lignes": [
      "1"
    ],
    "latitude": 48.87566737659971,
    "longitude": 2.289435418542214
  },
  "IDFM:463304": {
    "nom": "Saint-Georges",
    "lignes": [
      "12"
    ],
    "latitude": 48.87836199275949,
    "longitude": 2.3374546190400918
  },
  "IDFM:463032": {
    "nom": "Stalingrad",
    "lignes": [
      "5"
    ],
    "latitude": 48.8841445128949,
    "longitude": 2.367348121277192
  },
  "IDFM:462950": {
    "nom": "Rue du Bac",
    "lignes": [
      "12"
    ],
    "latitude": 48.85588467848543,
    "longitude": 2.3256998984524118
  },
  "IDFM:21914": {
    "nom": "Porte de Saint-Cloud",
    "lignes": [
      "9"
    ],
    "latitude": 48.83795840561949,
    "longitude": 2.2570461929221506
  },
  "IDFM:463278": {
    "nom": "Porte de Clichy",
    "lignes": [
      "13"
    ],
    "latitude": 48.89443128801746,
    "longitude": 2.31320835075881
  },
  "IDFM:463185": {
    "nom": "George V",
    "lignes": [
      "1"
    ],
    "latitude": 48.87203776458909,
    "longitude": 2.300759784978918
  },
  "IDFM:22219": {
    "nom": "Porte de Clichy",
    "lignes": [
      "13"
    ],
    "latitude": 48.89464071673921,
    "longitude": 2.3136590957118317
  },
  "IDFM:463255": {
    "nom": "Poissonnière",
    "lignes": [
      "7"
    ],
    "latitude": 48.87707970751055,
    "longitude": 2.3487939912846394
  },
  "IDFM:22158": {
    "nom": "Denfert-Rochereau",
    "lignes": [
      "6"
    ],
    "latitude": 48.83431320632965,
    "longitude": 2.3328724454976864
  },
  "IDFM:463055": {
    "nom": "Rue de la Pompe",
    "lignes": [
      "9"
    ],
    "latitude": 48.86403732937509,
    "longitude": 2.277916063289398
  },
  "IDFM:463232": {
    "nom": "Pont Neuf",
    "lignes": [
      "7"
    ],
    "latitude": 48.85854633926832,
    "longitude": 2.341776749148542
  },
  "IDFM:22135": {
    "nom": "Vavin",
    "lignes": [
      "4"
    ],
    "latitude": 48.842242093452064,
    "longitude": 2.32902391746117
  },
  "IDFM:463078": {
    "nom": "Jussieu",
    "lignes": [
      "7"
    ],
    "latitude": 48.84596333903808,
    "longitude": 2.354798309820857
  },
  "IDFM:463209": {
    "nom": "Liberté",
    "lignes": [
      "8"
    ],
    "latitude": 48.82608032193611,
    "longitude": 2.406409459132366
  },
  "IDFM:21960": {
    "nom": "Pyramides",
    "lignes": [
      "14"
    ],
    "latitude": 48.86575552737676,
    "longitude": 2.3346236060049232
  },
  "IDFM:463280": {
    "nom": "Porte de Pantin",
    "lignes": [
      "5"
    ],
    "latitude": 48.88845921134684,
    "longitude": 2.3921229723281483
  },
  "IDFM:22183": {
    "nom": "La Motte-Picquet - Grenelle",
    "lignes": [
      "8"
    ],
    "latitude": 48.84950618174656,
    "longitude": 2.298745444388579
  },
  "IDFM:22017": {
    "nom": "Hoche",
    "lignes": [
      "5"
    ],
    "latitude": 48.89128939386479,
    "longitude": 2.4032119887626737
  },
  "IDFM:463007": {
    "nom": "Porte de la Villette",
    "lignes": [
      "7"
    ],
    "latitude": 48.89786518171076,
    "longitude": 2.3857788171360426
  },
  "IDFM:463114": {
    "nom": "Boissière",
    "lignes": [
      "6"
    ],
    "latitude": 48.8668483434173,
    "longitude": 2.2900328376074373
  },
  "IDFM:22221": {
    "nom": "Porte de Vanves",
    "lignes": [
      "13"
    ],
    "latitude": 48.82766229777493,
    "longitude": 2.305223578739507
  },
  "IDFM:463238": {
    "nom": "Michel-Ange - Auteuil",
    "lignes": [
      "9"
    ],
    "latitude": 48.84770893216831,
    "longitude": 2.2638093220226634
  },
  "IDFM:21987": {
    "nom": "Avenue Émile Zola",
    "lignes": [
      "10"
    ],
    "latitude": 48.84695722990175,
    "longitude": 2.2950459810371475
  },
  "IDFM:22081": {
    "nom": "Louvre - Rivoli",
    "lignes": [
      "1"
    ],
    "latitude": 48.86078090878698,
    "longitude": 2.3409026134809903
  },
  "IDFM:22010": {
    "nom": "Bastille",
    "lignes": [
      "5"
    ],
    "latitude": 48.85328747830434,
    "longitude": 2.368922075646989
  },
  "IDFM:22368": {
    "nom": "Stalingrad",
    "lignes": [
      "7"
    ],
    "latitude": 48.88431508830977,
    "longitude": 2.368996070723285
  },
  "IDFM:463286": {
    "nom": "Père Lachaise",
    "lignes": [
      "3"
    ],
    "latitude": 48.86304099836643,
    "longitude": 2.3862311113287342
  },
  "IDFM:22033": {
    "nom": "Bourse",
    "lignes": [
      "3"
    ],
    "latitude": 48.86879284393317,
    "longitude": 2.340678546975881
  },
  "IDFM:24685": {
    "nom": "Bolivar",
    "lignes": [
      "7B"
    ],
    "latitude": 48.88078966297506,
    "longitude": 2.374124871187542
  },
  "IDFM:463027": {
    "nom": "Ourcq",
    "lignes": [
      "5"
    ],
    "latitude": 48.88691595319499,
    "longitude": 2.386652016759884
  },
  "IDFM:463139": {
    "nom": "Cadet",
    "lignes": [
      "7"
    ],
    "latitude": 48.87604838013132,
    "longitude": 2.344383883779656
  },
  "IDFM:463162": {
    "nom": "Commerce",
    "lignes": [
      "8"
    ],
    "latitude": 48.84458485524012,
    "longitude": 2.293851708440619
  },
  "IDFM:463263": {
    "nom": "Porte des Lilas",
    "lignes": [
      "11"
    ],
    "latitude": 48.87723143067265,
    "longitude": 2.4065226763982275
  },
  "IDFM:22244": {
    "nom": "Garibaldi",
    "lignes": [
      "13"
    ],
    "latitude": 48.906372391923206,
    "longitude": 2.331962553647662
  },
  "IDFM:22157": {
    "nom": "Montparnasse Bienvenue",
    "lignes": [
      "13"
    ],
    "latitude": 48.84231364506487,
    "longitude": 2.320983883036087
  },
  "IDFM:21964": {
    "nom": "Saint-Lazare",
    "lignes": [
      "12"
    ],
    "latitude": 48.875689121953926,
    "longitude": 2.32744775001932
  },
  "IDFM:22134": {
    "nom": "Strasbourg - Saint-Denis",
    "lignes": [
      "4"
    ],
    "latitude": 48.86962358263758,
    "longitude": 2.354491616563834
  },
  "IDFM:21941": {
    "nom": "Mairie de Montreuil",
    "lignes": [
      "9"
    ],
    "latitude": 48.8622744369706,
    "longitude": 2.4418193772459085
  },
  "IDFM:462981": {
    "nom": "Jaurès",
    "lignes": [
      "2"
    ],
    "latitude": 48.881596221131936,
    "longitude": 2.3701539703369967
  },
  "IDFM:463240": {
    "nom": "Monceau",
    "lignes": [
      "2"
    ],
    "latitude": 48.88056877012684,
    "longitude": 2.309412967374703
  },
  "IDFM:463314": {
    "nom": "Sèvres-Lecourbe",
    "lignes": [
      "6"
    ],
    "latitude": 48.84564768265073,
    "longitude": 2.309529610430393
  },
  "IDFM:463164": {
    "nom": "Concorde",
    "lignes": [
      "12"
    ],
    "latitude": 48.8661808158217,
    "longitude": 2.323058362902906
  },
  "IDFM:22079": {
    "nom": "Palais Royal - Musée du Louvre",
    "lignes": [
      "1"
    ],
    "latitude": 48.86222226557415,
    "longitude": 2.336454367754252
  },
  "IDFM:462983": {
    "nom": "Couronnes",
    "lignes": [
      "2"
    ],
    "latitude": 48.86919334513237,
    "longitude": 2.3802889829271936
  },
  "IDFM:22155": {
    "nom": "Raspail",
    "lignes": [
      "6"
    ],
    "latitude": 48.83908487281128,
    "longitude": 2.330549660589195
  },
  "IDFM:22370": {
    "nom": "Tolbiac",
    "lignes": [
      "7"
    ],
    "latitude": 48.82613686175372,
    "longitude": 2.357318439213192
  },
  "IDFM:463213": {
    "nom": "Malakoff - Plateau de Vanves",
    "lignes": [
      "13"
    ],
    "latitude": 48.82214529059278,
    "longitude": 2.2984111759006174
  },
  "IDFM:21962": {
    "nom": "Saint-Lazare",
    "lignes": [
      "14"
    ],
    "latitude": 48.87560743718584,
    "longitude": 2.324122029700433
  },
  "IDFM:22132": {
    "nom": "Marcadet - Poissonniers",
    "lignes": [
      "4"
    ],
    "latitude": 48.891280439844486,
    "longitude": 2.349681541722477
  },
  "IDFM:463116": {
    "nom": "Abbesses",
    "lignes": [
      "12"
    ],
    "latitude": 48.88439271799143,
    "longitude": 2.338394635220906
  },
  "IDFM:22056": {
    "nom": "Falguière",
    "lignes": [
      "12"
    ],
    "latitude": 48.844317683534335,
    "longitude": 2.317551235617027
  },
  "IDFM:463288": {
    "nom": "Quai de la Gare",
    "lignes": [
      "6"
    ],
    "latitude": 48.8370742706096,
    "longitude": 2.372766248948172
  },
  "IDFM:463004": {
    "nom": "Nationale",
    "lignes": [
      "6"
    ],
    "latitude": 48.83323527967617,
    "longitude": 2.3628041715935075
  },
  "IDFM:462958": {
    "nom": "Javel - André Citroën",
    "lignes": [
      "10"
    ],
    "latitude": 48.846086877931405,
    "longitude": 2.2780435059854063
  },
  "IDFM:463052": {
    "nom": "Alma - Marceau",
    "lignes": [
      "9"
    ],
    "latitude": 48.86464714790582,
    "longitude": 2.30110435239267
  },
  "IDFM:463141": {
    "nom": "Cardinal Lemoine",
    "lignes": [
      "10"
    ],
    "latitude": 48.84670003526311,
    "longitude": 2.3513280016731763
  },
  "IDFM:22109": {
    "nom": "Victor Hugo",
    "lignes": [
      "2"
    ],
    "latitude": 48.8698545716049,
    "longitude": 2.2859020006220643
  },
  "IDFM:21939": {
    "nom": "Billancourt",
    "lignes": [
      "9"
    ],
    "latitude": 48.83183051284947,
    "longitude": 2.237965973200589
  },
  "IDFM:463075": {
    "nom": "Dugommier",
    "lignes": [
      "6"
    ],
    "latitude": 48.83903652832887,
    "longitude": 2.3895997700798097
  },
  "IDFM:22393": {
    "nom": "Fort d'Aubervilliers",
    "lignes": [
      "7"
    ],
    "latitude": 48.91475665506255,
    "longitude": 2.404075377271855
  },
  "IDFM:21916": {
    "nom": "Voltaire",
    "lignes": [
      "9"
    ],
    "latitude": 48.857735295553454,
    "longitude": 2.3802080115879227
  },
  "IDFM:22008": {
    "nom": "Bréguet-Sabin",
    "lignes": [
      "5"
    ],
    "latitude": 48.85624405468632,
    "longitude": 2.370194668589752
  },
  "IDFM:22180": {
    "nom": "Boissière",
    "lignes": [
      "6"
    ],
    "latitude": 48.8668483434173,
    "longitude": 2.2900328376074373
  },
  "IDFM:463187": {
    "nom": "Goncourt",
    "lignes": [
      "11"
    ],
    "latitude": 48.869936723164365,
    "longitude": 2.3710788377398995
  },
  "IDFM:24687": {
    "nom": "Danube",
    "lignes": [
      "7B"
    ],
    "latitude": 48.88194921492064,
    "longitude": 2.393228471227492
  },
  "IDFM:463098": {
    "nom": "Picpus",
    "lignes": [
      "6"
    ],
    "latitude": 48.84510324750185,
    "longitude": 2.401274538822374
  },
  "IDFM:463189": {
    "nom": "Havre-Caumartin",
    "lignes": [
      "3"
    ],
    "latitude": 48.8735493178711,
    "longitude": 2.32755854621969
  },
  "IDFM:21943": {
    "nom": "Croix de Chavaux",
    "lignes": [
      "9"
    ],
    "latitude": 48.857992585158016,
    "longitude": 2.4358546126745826
  },
  "IDFM:463217": {
    "nom": "Les Sablons",
    "lignes": [
      "1"
    ],
    "latitude": 48.88129083793358,
    "longitude": 2.271904762259129
  },
  "IDFM:463096": {
    "nom": "Richard-Lenoir",
    "lignes": [
      "5"
    ],
    "latitude": 48.85985966744055,
    "longitude": 2.3719501400872653
  },
  "IDFM:463259": {
    "nom": "Porte de Saint-Cloud",
    "lignes": [
      "9"
    ],
    "latitude": 48.83799728287381,
    "longitude": 2.2567894964207142
  },
  "IDFM:463166": {
    "nom": "Créteil - L'Échat",
    "lignes": [
      "8"
    ],
    "latitude": 48.79661108096057,
    "longitude": 2.449424047013373
  },
  "IDFM:21918": {
    "nom": "République",
    "lignes": [
      "9"
    ],
    "latitude": 48.86739447922248,
    "longitude": 2.3631211111325285
  },
  "IDFM:463312": {
    "nom": "Strasbourg - Saint-Denis",
    "lignes": [
      "8"
    ],
    "latitude": 48.86946694920397,
    "longitude": 2.353797473153033
  },
  "IDFM:22178": {
    "nom": "Bercy",
    "lignes": [
      "6"
    ],
    "latitude": 48.840176028121896,
    "longitude": 2.379463070185257
  },
  "IDFM:463000": {
    "nom": "Bastille",
    "lignes": [
      "8"
    ],
    "latitude": 48.85348468769834,
    "longitude": 2.369652217650188
  },
  "IDFM:22223": {
    "nom": "Plaisance",
    "lignes": [
      "13"
    ],
    "latitude": 48.83174121370108,
    "longitude": 2.313833364032832
  },
  "IDFM:463236": {
    "nom": "Marx Dormoy",
    "lignes": [
      "12"
    ],
    "latitude": 48.89057957856722,
    "longitude": 2.359808478084024
  },
  "IDFM:462954": {
    "nom": "Montparnasse Bienvenue",
    "lignes": [
      "13"
    ],
    "latitude": 48.84228592360469,
    "longitude": 2.3208534383022275
  },
  "IDFM:463284": {
    "nom": "Pyramides",
    "lignes": [
      "14"
    ],
    "latitude": 48.86580563193237,
    "longitude": 2.3347388358754158
  },
  "IDFM:22083": {
    "nom": "Gare de Lyon",
    "lignes": [
      "1"
    ],
    "latitude": 48.8456832067358,
    "longitude": 2.3731565937892047
  },
  "IDFM:21991": {
    "nom": "Pyrénées",
    "lignes": [
      "11"
    ],
    "latitude": 48.87381265491752,
    "longitude": 2.384883957748741
  },
  "IDFM:463071": {
    "nom": "Saint-Fargeau",
    "lignes": [
      "3B"
    ],
    "latitude": 48.87188765807701,
    "longitude": 2.404361344448241
  },
  "IDFM:463118": {
    "nom": "Alésia",
    "lignes": [
      "4"
    ],
    "latitude": 48.82815215770352,
    "longitude": 2.3271926250651647
  },
  "IDFM:22060": {
    "nom": "Assemblée Nationale",
    "lignes": [
      "12"
    ],
    "latitude": 48.86107193952608,
    "longitude": 2.320575836647556
  },
  "IDFM:22105": {
    "nom": "Bérault",
    "lignes": [
      "1"
    ],
    "latitude": 48.84540614839331,
    "longitude": 2.4292049740990573
  },
  "IDFM:24683": {
    "nom": "Buttes Chaumont",
    "lignes": [
      "7B"
    ],
    "latitude": 48.87849908839857,
    "longitude": 2.381569842088008
  },
  "IDFM:22200": {
    "nom": "Filles du Calvaire",
    "lignes": [
      "8"
    ],
    "latitude": 48.86308830188695,
    "longitude": 2.366826859795412
  },
  "IDFM:463002": {
    "nom": "Bobigny-Pantin - Raymond Queneau",
    "lignes": [
      "5"
    ],
    "latitude": 48.89563789793626,
    "longitude": 2.426277595760804
  },
  "IDFM:463261": {
    "nom": "Porte de Versailles",
    "lignes": [
      "12"
    ],
    "latitude": 48.83251953251351,
    "longitude": 2.2877417091423347
  },
  "IDFM:463191": {
    "nom": "Jacques Bonsergent",
    "lignes": [
      "5"
    ],
    "latitude": 48.870620926265296,
    "longitude": 2.361023902048923
  },
  "IDFM:22176": {
    "nom": "Cambronne",
    "lignes": [
      "6"
    ],
    "latitude": 48.84754311219352,
    "longitude": 2.302941728337612
  },
  "IDFM:462956": {
    "nom": "Exelmans",
    "lignes": [
      "9"
    ],
    "latitude": 48.842624465259945,
    "longitude": 2.25967486021195
  },
  "IDFM:463050": {
    "nom": "Porte Dorée",
    "lignes": [
      "8"
    ],
    "latitude": 48.83501737409391,
    "longitude": 2.4058739129875644
  },
  "IDFM:22225": {
    "nom": "Liège",
    "lignes": [
      "13"
    ],
    "latitude": 48.87953493737576,
    "longitude": 2.3268526712397555
  },
  "IDFM:463143": {
    "nom": "Charonne",
    "lignes": [
      "9"
    ],
    "latitude": 48.854939443448494,
    "longitude": 2.384782396448888
  },
  "IDFM:22107": {
    "nom": "Stalingrad",
    "lignes": [
      "2"
    ],
    "latitude": 48.88424398456775,
    "longitude": 2.365751439124989
  },
  "IDFM:22202": {
    "nom": "Chemin Vert",
    "lignes": [
      "8"
    ],
    "latitude": 48.85710602289208,
    "longitude": 2.368221612765033
  },
  "IDFM:463073": {
    "nom": "Porte de Clignancourt",
    "lignes": [
      "4"
    ],
    "latitude": 48.897525631278015,
    "longitude": 2.344624099102791
  },
  "IDFM:22391": {
    "nom": "Censier - Daubenton",
    "lignes": [
      "7"
    ],
    "latitude": 48.84022624851393,
    "longitude": 2.351626572605499
  },
  "IDFM:22199": {
    "nom": "République",
    "lignes": [
      "8"
    ],
    "latitude": 48.86748513277203,
    "longitude": 2.3632563242479026
  },
  "IDFM:21920": {
    "nom": "Strasbourg - Saint-Denis",
    "lignes": [
      "9"
    ],
    "latitude": 48.869349679171926,
    "longitude": 2.3537315826731837
  },
  "IDFM:22389": {
    "nom": "Corentin Cariou",
    "lignes": [
      "7"
    ],
    "latitude": 48.89467266005628,
    "longitude": 2.382291557164633
  },
  "IDFM:463215": {
    "nom": "Maraîchers",
    "lignes": [
      "9"
    ],
    "latitude": 48.85265013095636,
    "longitude": 2.4060490065790447
  },
  "IDFM:22153": {
    "nom": "Château d'Eau",
    "lignes": [
      "4"
    ],
    "latitude": 48.87244691759551,
    "longitude": 2.3560517414015862
  },
  "IDFM:22012": {
    "nom": "Laumière",
    "lignes": [
      "5"
    ],
    "latitude": 48.88513384808583,
    "longitude": 2.3793909893523923
  },
  "IDFM:463048": {
    "nom": "Filles du Calvaire",
    "lignes": [
      "8"
    ],
    "latitude": 48.8630421114174,
    "longitude": 2.3665956945709348
  },
  "IDFM:22035": {
    "nom": "Pont de Levallois - Bécon",
    "lignes": [
      "3"
    ],
    "latitude": 48.89718710383118,
    "longitude": 2.280180198501724
  },
  "IDFM:21966": {
    "nom": "Châtelet",
    "lignes": [
      "11"
    ],
    "latitude": 48.85776111354502,
    "longitude": 2.3478374055687867
  },
  "IDFM:22130": {
    "nom": "Barbès - Rochechouart",
    "lignes": [
      "4"
    ],
    "latitude": 48.88340206048623,
    "longitude": 2.349629927853002
  },
  "IDFM:22366": {
    "nom": "Place Monge",
    "lignes": [
      "7"
    ],
    "latitude": 48.842666385642886,
    "longitude": 2.3521548685787708
  },
  "IDFM:463120": {
    "nom": "Anvers",
    "lignes": [
      "2"
    ],
    "latitude": 48.882868568843925,
    "longitude": 2.344154840330292
  },
  "IDFM:22058": {
    "nom": "Convention",
    "lignes": [
      "12"
    ],
    "latitude": 48.837125900521,
    "longitude": 2.2963642614342694
  },
  "IDFM:463025": {
    "nom": "Place d'Italie",
    "lignes": [
      "5"
    ],
    "latitude": 48.830965713292656,
    "longitude": 2.355501591481485
  },
  "IDFM:21989": {
    "nom": "Boulogne Pont de Saint-Cloud",
    "lignes": [
      "10"
    ],
    "latitude": 48.84067248206251,
    "longitude": 2.2283125898228056
  },
  "IDFM:463310": {
    "nom": "Simplon",
    "lignes": [
      "4"
    ],
    "latitude": 48.8938152613519,
    "longitude": 2.347794968187123
  },
  "IDFM:462979": {
    "nom": "Château d'Eau",
    "lignes": [
      "4"
    ],
    "latitude": 48.87247308911766,
    "longitude": 2.355901449780536
  },
  "IDFM:462987": {
    "nom": "Villiers",
    "lignes": [
      "3"
    ],
    "latitude": 48.881153980760416,
    "longitude": 2.3157901685080926
  },
  "IDFM:22374": {
    "nom": "Porte de la Villette",
    "lignes": [
      "7"
    ],
    "latitude": 48.89780269235572,
    "longitude": 2.385869033143345
  },
  "IDFM:22151": {
    "nom": "Denfert-Rochereau",
    "lignes": [
      "4"
    ],
    "latitude": 48.83392232305997,
    "longitude": 2.332128160437612
  },
  "IDFM:21970": {
    "nom": "Duroc",
    "lignes": [
      "10"
    ],
    "latitude": 48.84675637808778,
    "longitude": 2.3162247549746047
  },
  "IDFM:463221": {
    "nom": "Mairie de Montreuil",
    "lignes": [
      "9"
    ],
    "latitude": 48.86231313094024,
    "longitude": 2.4414386664522225
  },
  "IDFM:22027": {
    "nom": "Villiers",
    "lignes": [
      "3"
    ],
    "latitude": 48.88107318307563,
    "longitude": 2.315815092646378
  },
  "IDFM:22103": {
    "nom": "Saint-Mandé",
    "lignes": [
      "1"
    ],
    "latitude": 48.84623820806007,
    "longitude": 2.418962354532708
  },
  "IDFM:463292": {
    "nom": "Raspail",
    "lignes": [
      "6"
    ],
    "latitude": 48.8390661288004,
    "longitude": 2.3304144712354797
  },
  "IDFM:22075": {
    "nom": "Tuileries",
    "lignes": [
      "1"
    ],
    "latitude": 48.864550163577015,
    "longitude": 2.3297453212172794
  },
  "IDFM:21993": {
    "nom": "Télégraphe",
    "lignes": [
      "11"
    ],
    "latitude": 48.87551038418075,
    "longitude": 2.3986480899605933
  },
  "IDFM:462964": {
    "nom": "Volontaires",
    "lignes": [
      "12"
    ],
    "latitude": 48.84152824313428,
    "longitude": 2.3079137063600563
  },
  "IDFM:24679": {
    "nom": "Front Populaire",
    "lignes": [
      "12"
    ],
    "latitude": 48.90676304816429,
    "longitude": 2.365777177193171
  },
  "IDFM:463320": {
    "nom": "Varenne",
    "lignes": [
      "13"
    ],
    "latitude": 48.85662420264694,
    "longitude": 2.3149776470363417
  },
  "IDFM:463122": {
    "nom": "Arts et Métiers",
    "lignes": [
      "3"
    ],
    "latitude": 48.86561531899988,
    "longitude": 2.3566822734187167
  },
  "IDFM:22098": {
    "nom": "Reuilly - Diderot",
    "lignes": [
      "8"
    ],
    "latitude": 48.84721292669797,
    "longitude": 2.387201070409392
  },
  "IDFM:463145": {
    "nom": "Chaussée d'Antin - La Fayette",
    "lignes": [
      "7"
    ],
    "latitude": 48.87320127201252,
    "longitude": 2.333669568112413
  },
  "IDFM:463219": {
    "nom": "Mairie d'Issy",
    "lignes": [
      "12"
    ],
    "latitude": 48.82434428766646,
    "longitude": 2.273558168023932
  },
  "IDFM:463021": {
    "nom": "Gare de l'Est",
    "lignes": [
      "5"
    ],
    "latitude": 48.876081616617256,
    "longitude": 2.357982972943156
  },
  "IDFM:463168": {
    "nom": "Daumesnil",
    "lignes": [
      "8"
    ],
    "latitude": 48.83967393140864,
    "longitude": 2.395573606140371
  },
  "IDFM:22004": {
    "nom": "Quai de la Rapée",
    "lignes": [
      "5"
    ],
    "latitude": 48.84649085420337,
    "longitude": 2.365992890937552
  },
  "IDFM:22397": {
    "nom": "Pierre et Marie Curie",
    "lignes": [
      "7"
    ],
    "latitude": 48.81583650099709,
    "longitude": 2.377246886036494
  },
  "IDFM:463094": {
    "nom": "Barbès - Rochechouart",
    "lignes": [
      "2"
    ],
    "latitude": 48.88385234986188,
    "longitude": 2.350573400888514
  },
  "IDFM:463044": {
    "nom": "Pont de Neuilly",
    "lignes": [
      "1"
    ],
    "latitude": 48.8854985504452,
    "longitude": 2.258522572948157
  },
  "IDFM:22128": {
    "nom": "Belleville",
    "lignes": [
      "2"
    ],
    "latitude": 48.87231407736167,
    "longitude": 2.3768306915222848
  },
  "IDFM:22050": {
    "nom": "Notre-Dame-de-Lorette",
    "lignes": [
      "12"
    ],
    "latitude": 48.8760350312806,
    "longitude": 2.3378736192226386
  },
  "IDFM:22149": {
    "nom": "Gare du Nord",
    "lignes": [
      "4"
    ],
    "latitude": 48.879510553130615,
    "longitude": 2.356768884572096
  },
  "IDFM:463269": {
    "nom": "Villejuif - Louis Aragon",
    "lignes": [
      "7"
    ],
    "latitude": 48.787572501132765,
    "longitude": 2.367716899053842
  },
  "IDFM:463046": {
    "nom": "Gare de Lyon",
    "lignes": [
      "14"
    ],
    "latitude": 48.84467563174822,
    "longitude": 2.373100581933962
  },
  "IDFM:21968": {
    "nom": "Jussieu",
    "lignes": [
      "10"
    ],
    "latitude": 48.84619789163701,
    "longitude": 2.3549316718232256
  },
  "IDFM:24681": {
    "nom": "Louis Blanc",
    "lignes": [
      "7B"
    ],
    "latitude": 48.88120621182599,
    "longitude": 2.364424862493678
  },
  "IDFM:463023": {
    "nom": "Gare d'Austerlitz",
    "lignes": [
      "5"
    ],
    "latitude": 48.84239585285852,
    "longitude": 2.3654431802574227
  },
  "IDFM:22002": {
    "nom": "Richard-Lenoir",
    "lignes": [
      "5"
    ],
    "latitude": 48.85987693786871,
    "longitude": 2.371813630476951
  },
  "IDFM:463246": {
    "nom": "Opéra",
    "lignes": [
      "3"
    ],
    "latitude": 48.87150983278418,
    "longitude": 2.331128974301561
  },
  "IDFM:22126": {
    "nom": "Couronnes",
    "lignes": [
      "2"
    ],
    "latitude": 48.86932051914457,
    "longitude": 2.3805336747351005
  },
  "IDFM:22399": {
    "nom": "Villejuif Léo Lagrange",
    "lignes": [
      "7"
    ],
    "latitude": 48.80435318028833,
    "longitude": 2.3639317476477357
  },
  "IDFM:463092": {
    "nom": "Porte d'Orléans",
    "lignes": [
      "4"
    ],
    "latitude": 48.82339460262072,
    "longitude": 2.325623760353114
  },
  "IDFM:463223": {
    "nom": "Mairie des Lilas",
    "lignes": [
      "11"
    ],
    "latitude": 48.879658467973904,
    "longitude": 2.4163499077398614
  },
  "IDFM:22174": {
    "nom": "Chevaleret",
    "lignes": [
      "6"
    ],
    "latitude": 48.83496308210916,
    "longitude": 2.368081282972743
  },
  "IDFM:463193": {
    "nom": "La Défense (Grande Arche)",
    "lignes": [
      "1"
    ],
    "latitude": 48.89199558886802,
    "longitude": 2.2383579200010373
  },
  "IDFM:21945": {
    "nom": "Gambetta",
    "lignes": [
      "3B"
    ],
    "latitude": 48.865032564464,
    "longitude": 2.398537305704572
  },
  "IDFM:463069": {
    "nom": "Europe",
    "lignes": [
      "3"
    ],
    "latitude": 48.87875316404477,
    "longitude": 2.32218591952051
  },
  "IDFM:22227": {
    "nom": "La Fourche",
    "lignes": [
      "13"
    ],
    "latitude": 48.88742451051807,
    "longitude": 2.325686960766736
  },
  "IDFM:463170": {
    "nom": "Esplanade de la Défense",
    "lignes": [
      "1"
    ],
    "latitude": 48.88834989394862,
    "longitude": 2.249931086743073
  },
  "IDFM:22400": {
    "nom": "Villejuif - Louis Aragon",
    "lignes": [
      "7"
    ],
    "latitude": 48.78753717099888,
    "longitude": 2.36783901176962
  },
  "IDFM:22096": {
    "nom": "Concorde",
    "lignes": [
      "8"
    ],
    "latitude": 48.86652125193945,
    "longitude": 2.3220315426557194
  },
  "IDFM:22204": {
    "nom": "Faidherbe - Chaligny",
    "lignes": [
      "8"
    ],
    "latitude": 48.85020070550927,
    "longitude": 2.384072471688875
  },
  "IDFM:463318": {
    "nom": "Trocadéro",
    "lignes": [
      "9"
    ],
    "latitude": 48.86308797989344,
    "longitude": 2.286826249801301
  },
  "IDFM:463294": {
    "nom": "Reuilly - Diderot",
    "lignes": [
      "1"
    ],
    "latitude": 48.84734982784612,
    "longitude": 2.3858367760086865
  },
  "IDFM:22073": {
    "nom": "Nation",
    "lignes": [
      "6"
    ],
    "latitude": 48.84789550545761,
    "longitude": 2.3958598043279085
  },
  "IDFM:21922": {
    "nom": "Michel-Ange - Auteuil",
    "lignes": [
      "9"
    ],
    "latitude": 48.84767825351756,
    "longitude": 2.2639392129884905
  },
  "IDFM:22197": {
    "nom": "Grands Boulevards",
    "lignes": [
      "8"
    ],
    "latitude": 48.87146677844407,
    "longitude": 2.342839648636545
  },
  "IDFM:22124": {
    "nom": "Avron",
    "lignes": [
      "2"
    ],
    "latitude": 48.85164854359716,
    "longitude": 2.3981875566593973
  },
  "IDFM:463090": {
    "nom": "Bourse",
    "lignes": [
      "3"
    ],
    "latitude": 48.868738736969725,
    "longitude": 2.3406519668083314
  },
  "IDFM:463265": {
    "nom": "Sully - Morland",
    "lignes": [
      "7"
    ],
    "latitude": 48.85127140839376,
    "longitude": 2.361853169697248
  },
  "IDFM:22172": {
    "nom": "Edgar Quinet",
    "lignes": [
      "6"
    ],
    "latitude": 48.84098044632817,
    "longitude": 2.3253749636089105
  },
  "IDFM:463124": {
    "nom": "Avenue Émile Zola",
    "lignes": [
      "10"
    ],
    "latitude": 48.84703801370517,
    "longitude": 2.2950189971435506
  },
  "IDFM:463195": {
    "nom": "Ledru-Rollin",
    "lignes": [
      "8"
    ],
    "latitude": 48.85119274222268,
    "longitude": 2.375924913735691
  },
  "IDFM:463200": {
    "nom": "La Courneuve - 8 Mai 1945",
    "lignes": [
      "7"
    ],
    "latitude": 48.92037064946693,
    "longitude": 2.410008476572451
  },
  "IDFM:22229": {
    "nom": "Duroc",
    "lignes": [
      "13"
    ],
    "latitude": 48.847009893611975,
    "longitude": 2.3165212194565217
  },
  "IDFM:463242": {
    "nom": "Mouton-Duvernet",
    "lignes": [
      "4"
    ],
    "latitude": 48.83133758557153,
    "longitude": 2.329887640408421
  },
  "IDFM:22195": {
    "nom": "Opéra",
    "lignes": [
      "8"
    ],
    "latitude": 48.87059812248669,
    "longitude": 2.332135072925294
  },
  "IDFM:463147": {
    "nom": "Chevaleret",
    "lignes": [
      "6"
    ],
    "latitude": 48.83494516788824,
    "longitude": 2.3680951237726693
  },
  "IDFM:22006": {
    "nom": "Place d'Italie",
    "lignes": [
      "5"
    ],
    "latitude": 48.83096622708413,
    "longitude": 2.35559694336975
  },
  "IDFM:22206": {
    "nom": "Michel Bizot",
    "lignes": [
      "8"
    ],
    "latitude": 48.837000553950986,
    "longitude": 2.40228042706469
  },
  "IDFM:22395": {
    "nom": "La Courneuve - 8 Mai 1945",
    "lignes": [
      "7"
    ],
    "latitude": 48.92024579662936,
    "longitude": 2.4102214036405085
  },
  "IDFM:463172": {
    "nom": "Faidherbe - Chaligny",
    "lignes": [
      "8"
    ],
    "latitude": 48.85011054413369,
    "longitude": 2.384028566383108
  },
  "IDFM:463042": {
    "nom": "Charles de Gaulle - Etoile",
    "lignes": [
      "6"
    ],
    "latitude": 48.87371127132366,
    "longitude": 2.2947520493673434
  },
  "IDFM:463065": {
    "nom": "Jules Joffrin",
    "lignes": [
      "12"
    ],
    "latitude": 48.892492268201934,
    "longitude": 2.3443200293804827
  },
  "IDFM:462960": {
    "nom": "République",
    "lignes": [
      "11"
    ],
    "latitude": 48.86788497134881,
    "longitude": 2.3648796725347783
  },
  "IDFM:22077": {
    "nom": "Porte de Vincennes",
    "lignes": [
      "1"
    ],
    "latitude": 48.84700773108863,
    "longitude": 2.4108049967015006
  },
  "IDFM:463017": {
    "nom": "Hoche",
    "lignes": [
      "5"
    ],
    "latitude": 48.8914957494373,
    "longitude": 2.403114154894396
  },
  "IDFM:463290": {
    "nom": "Ranelagh",
    "lignes": [
      "9"
    ],
    "latitude": 48.85550355839564,
    "longitude": 2.269948157934635
  },
  "IDFM:22442": {
    "nom": "Rue des Boulets",
    "lignes": [
      "9"
    ],
    "latitude": 48.85221407333194,
    "longitude": 2.3891047050322425
  },
  "IDFM:21949": {
    "nom": "Porte des Lilas",
    "lignes": [
      "11"
    ],
    "latitude": 48.87723143067265,
    "longitude": 2.4065226763982275
  },
  "IDFM:22031": {
    "nom": "Malesherbes",
    "lignes": [
      "3"
    ],
    "latitude": 48.882763294053696,
    "longitude": 2.3094384103380805
  },
  "IDFM:21926": {
    "nom": "Havre-Caumartin",
    "lignes": [
      "9"
    ],
    "latitude": 48.87366675194512,
    "longitude": 2.327651103418782
  },
  "IDFM:22054": {
    "nom": "Jules Joffrin",
    "lignes": [
      "12"
    ],
    "latitude": 48.892492268201934,
    "longitude": 2.3443200293804827
  },
  "IDFM:463101": {
    "nom": "Passy",
    "lignes": [
      "6"
    ],
    "latitude": 48.8575315296204,
    "longitude": 2.2855802300954733
  },
  "IDFM:463067": {
    "nom": "Nation",
    "lignes": [
      "2"
    ],
    "latitude": 48.848453436979646,
    "longitude": 2.395925559927623
  },
  "IDFM:463019": {
    "nom": "Bastille",
    "lignes": [
      "1"
    ],
    "latitude": 48.85196422011205,
    "longitude": 2.368692796099789
  },
  "IDFM:463088": {
    "nom": "Pigalle",
    "lignes": [
      "2"
    ],
    "latitude": 48.88219737464818,
    "longitude": 2.3382179854559224
  },
  "IDFM:21947": {
    "nom": "Porte des Lilas",
    "lignes": [
      "3B"
    ],
    "latitude": 48.87656859902798,
    "longitude": 2.4070619733807948
  },
  "IDFM:463316": {
    "nom": "Temple",
    "lignes": [
      "3"
    ],
    "latitude": 48.86668483219092,
    "longitude": 2.361589378332189
  },
  "IDFM:462914": {
    "nom": "Marcel Sembat",
    "lignes": [
      "9"
    ],
    "latitude": 48.83359298218974,
    "longitude": 2.243583048618053
  },
  "IDFM:21924": {
    "nom": "Miromesnil",
    "lignes": [
      "9"
    ],
    "latitude": 48.8737728492328,
    "longitude": 2.3146430401104467
  },
  "IDFM:22372": {
    "nom": "Porte d'Ivry",
    "lignes": [
      "7"
    ],
    "latitude": 48.821489035562834,
    "longitude": 2.3695112543194927
  },
  "IDFM:22052": {
    "nom": "Marcadet - Poissonniers",
    "lignes": [
      "12"
    ],
    "latitude": 48.89145292865467,
    "longitude": 2.3499794329782024
  },
  "IDFM:21972": {
    "nom": "Javel - André Citroën",
    "lignes": [
      "10"
    ],
    "latitude": 48.84618110622323,
    "longitude": 2.278009496527359
  },
  "IDFM:462985": {
    "nom": "Pont de Levallois - Bécon",
    "lignes": [
      "3"
    ],
    "latitude": 48.89722831603318,
    "longitude": 2.28030375318625
  },
  "IDFM:463267": {
    "nom": "Tolbiac",
    "lignes": [
      "7"
    ],
    "latitude": 48.82615323734341,
    "longitude": 2.357018567738162
  },
  "IDFM:22101": {
    "nom": "La Défense (Grande Arche)",
    "lignes": [
      "1"
    ],
    "latitude": 48.89181786646099,
    "longitude": 2.237988183098828
  },
  "IDFM:463126": {
    "nom": "Basilique de Saint-Denis",
    "lignes": [
      "13"
    ],
    "latitude": 48.9367747982655,
    "longitude": 2.359431626687363
  },
  "IDFM:22029": {
    "nom": "Sentier",
    "lignes": [
      "3"
    ],
    "latitude": 48.86734660429376,
    "longitude": 2.3475538159377884
  },
  "IDFM:463244": {
    "nom": "Opéra",
    "lignes": [
      "8"
    ],
    "latitude": 48.87066534465599,
    "longitude": 2.3320941299398554
  },
  "IDFM:22231": {
    "nom": "Brochant",
    "lignes": [
      "13"
    ],
    "latitude": 48.89062201554889,
    "longitude": 2.3201902468999456
  },
  "IDFM:463149": {
    "nom": "Château de Vincennes",
    "lignes": [
      "1"
    ],
    "latitude": 48.84431751431355,
    "longitude": 2.440540095406114
  },
  "IDFM:22147": {
    "nom": "Etienne Marcel",
    "lignes": [
      "4"
    ],
    "latitude": 48.86370301202431,
    "longitude": 2.3489761968791085
  },
  "IDFM:21995": {
    "nom": "Jourdain",
    "lignes": [
      "11"
    ],
    "latitude": 48.875247348641416,
    "longitude": 2.389325378910096
  },
  "IDFM:462962": {
    "nom": "République",
    "lignes": [
      "8"
    ],
    "latitude": 48.86742161002706,
    "longitude": 2.363149406900382
  },
  "IDFM:463151": {
    "nom": "Concorde",
    "lignes": [
      "8"
    ],
    "latitude": 48.86656106315263,
    "longitude": 2.321915152849789
  },
  "IDFM:22045": {
    "nom": "Solférino",
    "lignes": [
      "12"
    ],
    "latitude": 48.85855008964175,
    "longitude": 2.323102988298513
  },
  "IDFM:483904": {
    "nom": "Mairie d'Aubervilliers",
    "lignes": [
      "12"
    ],
    "latitude": 48.913739225808136,
    "longitude": 2.3807826993163266
  },
  "IDFM:21999": {
    "nom": "Mairie des Lilas",
    "lignes": [
      "11"
    ],
    "latitude": 48.87974365006289,
    "longitude": 2.4162978208011863
  },
  "IDFM:462993": {
    "nom": "Saint-Germain-des-Prés",
    "lignes": [
      "4"
    ],
    "latitude": 48.85367371343323,
    "longitude": 2.333987429134225
  },
  "IDFM:462945": {
    "nom": "Rambuteau",
    "lignes": [
      "11"
    ],
    "latitude": 48.86119015695036,
    "longitude": 2.353273948594772
  },
  "IDFM:22233": {
    "nom": "Asnières - Gennevilliers Les Courtilles",
    "lignes": [
      "13"
    ],
    "latitude": 48.93060364140038,
    "longitude": 2.284372100658843
  },
  "IDFM:21928": {
    "nom": "Jasmin",
    "lignes": [
      "9"
    ],
    "latitude": 48.85246214784456,
    "longitude": 2.268219083521012
  },
  "IDFM:462970": {
    "nom": "Saint-Lazare",
    "lignes": [
      "13"
    ],
    "latitude": 48.8754621353288,
    "longitude": 2.3254668925871607
  },
  "IDFM:463087": {
    "nom": "Châtillon-Montrouge",
    "lignes": [
      "13"
    ],
    "latitude": 48.81072820779425,
    "longitude": 2.301595459041787
  },
  "IDFM:463103": {
    "nom": "Denfert-Rochereau",
    "lignes": [
      "6"
    ],
    "latitude": 48.83424986732888,
    "longitude": 2.332803776289825
  },
  "IDFM:463303": {
    "nom": "Saint-François-Xavier",
    "lignes": [
      "13"
    ],
    "latitude": 48.85129155093847,
    "longitude": 2.314285946180556
  },
  "IDFM:22093": {
    "nom": "Champs-Élysées - Clemenceau",
    "lignes": [
      "13"
    ],
    "latitude": 48.86750083759083,
    "longitude": 2.31401668387612
  },
  "IDFM:463227": {
    "nom": "Palais Royal - Musée du Louvre",
    "lignes": [
      "1"
    ],
    "latitude": 48.862366755622624,
    "longitude": 2.336561574182243
  },
  "IDFM:463202": {
    "nom": "La Motte-Picquet - Grenelle",
    "lignes": [
      "10"
    ],
    "latitude": 48.849532805857095,
    "longitude": 2.298684579816939
  },
  "IDFM:463197": {
    "nom": "Gare de Lyon",
    "lignes": [
      "1"
    ],
    "latitude": 48.84575948671397,
    "longitude": 2.373125016776689
  },
  "IDFM:22380": {
    "nom": "Porte d'Italie",
    "lignes": [
      "7"
    ],
    "latitude": 48.81903428608761,
    "longitude": 2.359462523882543
  },
  "IDFM:463298": {
    "nom": "Rue des Boulets",
    "lignes": [
      "9"
    ],
    "latitude": 48.85236862327955,
    "longitude": 2.389429968854563
  },
  "IDFM:21903": {
    "nom": "République",
    "lignes": [
      "5"
    ],
    "latitude": 48.867687468165165,
    "longitude": 2.3640990472225725
  },
  "IDFM:22208": {
    "nom": "Porte de Charenton",
    "lignes": [
      "8"
    ],
    "latitude": 48.83344922287947,
    "longitude": 2.402511872850073
  },
  "IDFM:463062": {
    "nom": "Notre-Dame-de-Lorette",
    "lignes": [
      "12"
    ],
    "latitude": 48.87604417483004,
    "longitude": 2.337900771823332
  },
  "IDFM:463174": {
    "nom": "Gallieni",
    "lignes": [
      "3"
    ],
    "latitude": 48.86539746068654,
    "longitude": 2.415921484287642
  },
  "IDFM:22022": {
    "nom": "Porte de Bagnolet",
    "lignes": [
      "3"
    ],
    "latitude": 48.86432836987192,
    "longitude": 2.4088234090802456
  },
  "IDFM:21976": {
    "nom": "Sèvres - Babylone",
    "lignes": [
      "10"
    ],
    "latitude": 48.85093150598804,
    "longitude": 2.326104689925573
  },
  "IDFM:22169": {
    "nom": "Nationale",
    "lignes": [
      "6"
    ],
    "latitude": 48.83318160406702,
    "longitude": 2.362857958087621
  },
  "IDFM:21974": {
    "nom": "Porte d'Auteuil",
    "lignes": [
      "10"
    ],
    "latitude": 48.84812886119474,
    "longitude": 2.2582639186231943
  },
  "IDFM:463252": {
    "nom": "Place de Clichy",
    "lignes": [
      "2"
    ],
    "latitude": 48.88374519677981,
    "longitude": 2.3278987090661456
  },
  "IDFM:463041": {
    "nom": "Tuileries",
    "lignes": [
      "1"
    ],
    "latitude": 48.864477839314645,
    "longitude": 2.3296780947116416
  },
  "IDFM:463199": {
    "nom": "Invalides",
    "lignes": [
      "8"
    ],
    "latitude": 48.86059945384315,
    "longitude": 2.314996938416133
  },
  "IDFM:463128": {
    "nom": "Bercy",
    "lignes": [
      "6"
    ],
    "latitude": 48.84018509185968,
    "longitude": 2.379476587256676
  },
  "IDFM:463064": {
    "nom": "Madeleine",
    "lignes": [
      "14"
    ],
    "latitude": 48.870630484228144,
    "longitude": 2.3258757399808627
  },
  "IDFM:21905": {
    "nom": "Oberkampf",
    "lignes": [
      "5"
    ],
    "latitude": 48.86458119806749,
    "longitude": 2.36852626860384
  },
  "IDFM:462995": {
    "nom": "Odéon",
    "lignes": [
      "4"
    ],
    "latitude": 48.852175453081486,
    "longitude": 2.3395157696170745
  },
  "IDFM:463176": {
    "nom": "Croix de Chavaux",
    "lignes": [
      "9"
    ],
    "latitude": 48.857992585158016,
    "longitude": 2.4358546126745826
  },
  "IDFM:22020": {
    "nom": "Père Lachaise",
    "lignes": [
      "3"
    ],
    "latitude": 48.86296417435419,
    "longitude": 2.386157046298338
  },
  "IDFM:21997": {
    "nom": "Arts et Métiers",
    "lignes": [
      "11"
    ],
    "latitude": 48.86529961264491,
    "longitude": 2.3565081436435467
  },
  "IDFM:22167": {
    "nom": "Picpus",
    "lignes": [
      "6"
    ],
    "latitude": 48.84501767720269,
    "longitude": 2.401248269453829
  },
  "IDFM:22382": {
    "nom": "Le Peletier",
    "lignes": [
      "7"
    ],
    "latitude": 48.874959406040965,
    "longitude": 2.3401505597063736
  },
  "IDFM:22192": {
    "nom": "La Tour-Maubourg",
    "lignes": [
      "8"
    ],
    "latitude": 48.85766922956403,
    "longitude": 2.310588789873988
  },
  "IDFM:463324": {
    "nom": "Villejuif Paul Vaillant-Couturier",
    "lignes": [
      "7"
    ],
    "latitude": 48.79630822122641,
    "longitude": 2.368195583812103
  },
  "IDFM:21951": {
    "nom": "Place des Fêtes",
    "lignes": [
      "11"
    ],
    "latitude": 48.87672366197325,
    "longitude": 2.393139370360497
  },
  "IDFM:22144": {
    "nom": "Mouton-Duvernet",
    "lignes": [
      "4"
    ],
    "latitude": 48.831382009093616,
    "longitude": 2.32979034782274
  },
  "IDFM:22210": {
    "nom": "Charenton - Écoles",
    "lignes": [
      "8"
    ],
    "latitude": 48.82125590204953,
    "longitude": 2.413847237068526
  },
  "IDFM:463039": {
    "nom": "Buzenval",
    "lignes": [
      "9"
    ],
    "latitude": 48.85176243983227,
    "longitude": 2.401170769368413
  },
  "IDFM:22121": {
    "nom": "Courcelles",
    "lignes": [
      "2"
    ],
    "latitude": 48.87926525411311,
    "longitude": 2.303294362425212
  },
  "IDFM:22091": {
    "nom": "Hôtel de Ville",
    "lignes": [
      "1"
    ],
    "latitude": 48.85735240518587,
    "longitude": 2.3520676701391
  },
  "IDFM:463016": {
    "nom": "Vavin",
    "lignes": [
      "4"
    ],
    "latitude": 48.84205232329236,
    "longitude": 2.3288628540691043
  },
  "IDFM:463301": {
    "nom": "Saint-Denis - Porte de Paris",
    "lignes": [
      "13"
    ],
    "latitude": 48.92992275044576,
    "longitude": 2.3561729251016
  },
  "IDFM:463105": {
    "nom": "Corvisart",
    "lignes": [
      "6"
    ],
    "latitude": 48.82986001331238,
    "longitude": 2.350611225926166
  },
  "IDFM:462947": {
    "nom": "Pasteur",
    "lignes": [
      "12"
    ],
    "latitude": 48.84282366881032,
    "longitude": 2.3126518981045816
  },
  "IDFM:463229": {
    "nom": "Pernety",
    "lignes": [
      "13"
    ],
    "latitude": 48.83416372097089,
    "longitude": 2.318323659736018
  },
  "IDFM:22190": {
    "nom": "Commerce",
    "lignes": [
      "8"
    ],
    "latitude": 48.84463784771031,
    "longitude": 2.293687475167137
  },
  "IDFM:463130": {
    "nom": "Bérault",
    "lignes": [
      "1"
    ],
    "latitude": 48.84549169626708,
    "longitude": 2.4292278831660283
  },
  "IDFM:22072": {
    "nom": "Nation",
    "lignes": [
      "2"
    ],
    "latitude": 48.84845279707999,
    "longitude": 2.395798835112525
  },
  "IDFM:22001": {
    "nom": "Stalingrad",
    "lignes": [
      "5"
    ],
    "latitude": 48.8841445128949,
    "longitude": 2.367348121277192
  },